STABR,FSCSKEY,FSCS_SEQ,LIBID,LIBNAME,ADDRESS,CITY,ZIP,ZIP4,CNTY,PHONE,C_OUT_TY,C_MSA,SQ_FEET,F_SQ_FT,L_NUM_BM,F_BKMOB,YR_SUB,STATSTRU,STATNAME,STATADDR,LONGITUD,LATITUDE,FIPSST,FIPSCO,FIPSPLAC,CNTYPOP,LOCALE,CENTRACT,CENBLOCK,CDCODE,MAT_CENT
AK,AK0001,002,AK0001-002,ANCHOR POINT PUBLIC LIBRARY,72251 MILO FRITZ AVENUE,ANCHOR POINT,99556,0129,KENAI PENINSULA,9072355692,CE,NO,1287,R_09,0,R_09,2010,00,00,15,-151.71634,59.81351,02,122,54085,54665,43,8,2005,00,X
AK,AK0002,007,AK0002-007,CHUGIAK/EAGLE RIVER BRANCH LIBRARY,12400 OLD GLENN HIGHWAY,EAGLE RIVER,99577,7596,ANCHORAGE,9076942500,BR,CC,12000,R_09,0,R_09,2010,00,00,00,-149.564842,61.33319,02,020,03000,286174,32,2.00999999,1012,00,0
AK,AK0002,008,AK0002-008,MULDOON BRANCH LIBRARY,"1251 MULDOON ROAD, SUITE 158",ANCHORAGE,99504,2070,ANCHORAGE,9073434223,BR,CC,8232,R_09,0,R_09,2010,00,00,00,-149.733412,61.21056,02,020,03000,286174,11,7.03000021,5008,00,0
AK,AK0002,009,AK0002-009,SAMSON-DIMOND BRANCH LIBRARY,"800 EAST DIMOND BOULEVARD, SUITE 23",ANCHORAGE,99515,2036,ANCHORAGE,9073434049,BR,CC,10200,R_09,0,R_09,2010,00,00,00,-149.866937,61.14458,02,020,03000,286174,11,27.12000084,1000,00,0
AK,AK0002,010,AK0002-010,SCOTT AND WESLEY GERRISH BRANCH LIBRARY,250 EGLOFF DRIVE,GIRDWOOD,99587,0169,ANCHORAGE,9073434024,BR,CC,3938,R_09,0,R_09,2010,00,00,07,-149.166389,60.9425,02,020,03000,286174,42,29,2023,00,X
AK,AK0002,011,AK0002-011,Z. J. LOUSSAC LIBRARY,3600 DENALI STREET,ANCHORAGE,99503,6055,ANCHORAGE,9073432975,CE,CC,140000,R_09,0,R_09,2010,00,00,00,-149.876714,61.18792,02,020,03000,286174,11,19,3001,00,0
AK,AK0003,002,AK0003-002,ANDERSON VILLAGE LIBRARY,101 FIRST STREET,ANDERSON,99744,3078,DENALI,9075822628,CE,NO,3041,R_09,0,R_09,2010,00,00,00,-149.178545,64.34357,02,068,03220,1851,43,1,1023,00,0
AK,AK0006,002,AK0006-002,KUSKOKWIM CONSORTIUM LIBRARY,420 STATE HIGHWAY,BETHEL,99559,0368,BETHEL,9075434516,CE,NO,3656,R_09,0,R_09,2010,00,00,00,-161.760222,60.77014,02,050,06520,17352,41,2,2003,00,0
AK,AK0007,002,AK0007-002,BIG LAKE PUBLIC LIBRARY,3140 SOUTH BIG LAKE ROAD,BIG LAKE,99652,0829,MATANUSKA-SUSITNA,9078926475,CE,NO,6940,R_09,0,R_09,2010,00,00,00,-149.819317,61.55251,02,170,07070,88379,42,5,1056,00,X
AK,AK0008,002,AK0008-002,CANTWELL COMMUNITY LIBRARY,1 SCHOOL ROAD,CANTWELL,99729,0068,DENALI,9077682372,CE,NO,1363,R_09,0,R_09,2010,00,00,00,-148.677951,63.44362,02,068,10150,1851,43,1,2131,00,X
AK,AK0011,002,AK0011-002,CHINIAK PUBLIC LIBRARY,43318 SPRUCE WAY,CHINIAK,99615,5610,KODIAK ISLAND,9074863022,CE,NO,1000,R_09,0,R_09,2010,00,00,00,-152.491432,57.74737,02,150,41210,13346,33,5,1016,00,X
AK,AK0014,002,AK0014-002,COLD BAY PUBLIC LIBRARY,10 BARANOV STREET,COLD BAY,99571,0087,ALEUTIANS EAST,9075322878,CE,NO,1100,R_09,0,R_09,2010,00,00,00,-161.128461,55.7397,02,013,00000,2744,43,1,2021,00,X
AK,AK0015,002,AK0015-002,COOPER LANDING COMMUNITY LIBRARY,MILE .8 BEAN CREEK ROAD,COOPER LANDING,99572,0517,KENAI PENINSULA,9075951241,CE,NO,1320,R_09,0,R_09,2010,00,00,00,-150.134689,60.49075,02,122,00000,54665,43,4,1001,00,X
AK,AK0016,002,AK0016-002,CORDOVA PUBLIC LIBRARY,622 FIRST STREET,CORDOVA,99574,1210,VALDEZ-CORDOVA,9074246667,CE,NO,2800,R_09,0,R_09,2010,00,00,00,-145.766016,60.54801,02,261,17410,9324,43,2,2018,00,0
AK,AK0017,003,AK0017-003,CRAIG PUBLIC LIBRARY,504 THIRD STREET,CRAIG,99921,1050,PR WALES-OUTER KE,9078263281,CE,NO,1800,R_09,0,R_09,2010,00,00,00,-133.151451,55.47608,02,198,17740,5560,43,2,3013,00,0
AK,AK0019,002,AK0019-002,DELTA COMMUNITY LIBRARY,2291 DEBORAH STREET,DELTA JUNCTION,99737,0229,SE FAIRBANK,9078954102,CE,NO,5000,R_09,0,R_09,2010,00,00,00,-145.713082,64.03256,02,240,18620,6892,43,2,2039,00,X
AK,AK0020,002,AK0020-002,DILLINGHAM PUBLIC LIBRARY,306 D STREET WEST,DILLINGHAM,99576,0870,DILLINGHAM,9078425610,CE,NO,2430,R_09,0,R_09,2010,00,00,00,-158.466804,59.04026,02,070,18950,4957,43,2,2005,00,0
AK,AK0021,002,AK0021-002,EAGLE PUBLIC LIBRARY,2ND & AMUNDSEN,EAGLE,99738,0045,SE FAIRBANK,9075472334,CE,NO,1500,R_09,0,R_09,2010,00,00,00,-141.201813,64.78648,02,240,20380,6892,43,1,1041,00,X
AK,AK0022,002,AK0022-002,ERNEST NYLIN MEMORIAL LIBRARY,50 ELIM LOOP,ELIM,99739,0050,NOME,9078903501,CE,NO,-3,U_09,-3,U_09,2010,23,00,00,-162.073651,64.75812,02,180,00000,9391,43,1,3058,00,X
AK,AK0023,002,AK0023-002,FAIRBANKS NORTH STAR BOROUGH PUBLIC LIBRARY,1215 COWLES STREET,FAIRBANKS,99701,4313,FAIRBANKS NORTH STAR,9074591020,CE,NO,62100,R_09,0,R_09,2010,00,00,00,-147.73849,64.83845,02,090,24230,98660,13,1,2027,00,0
AK,AK0023,003,AK0023-003,NORTH POLE BRANCH LIBRARY,601 SNOWMAN LANE,NORTH POLE,99705,7716,FAIRBANKS NORTH STAR,9074886101,BR,NO,4200,R_09,0,R_09,2010,00,00,00,-147.350744,64.74943,02,090,55910,98660,23,16,3038,00,0
AK,AK0023,004,AK0023-004,FAIRBANKS NORTH STAR BOROUGH PUBLIC LIBRARY,1215 COWLES STREET,FAIRBANKS,99701,4313,FAIRBANKS NORTH STAR,9074591020,BS,NO,-3,U_09,1,R_09,2010,00,00,00,-147.73849,64.838451,02,090,24230,98660,13,1,2027,00,0
AK,AK0025,002,AK0025-002,CHARLES EVANS COMMUNITY/SCHOOL LIBRARY,299 ANTOSKI DRIVE,GALENA,99741,0149,YUKON-KOYUKUK,9076561883,CE,NO,1500,R_09,0,R_09,2010,00,00,00,-154.720238,65.96966,02,290,00000,5627,43,3,1004,00,X
AK,AK0027,002,AK0027-002,COPPER VALLEY COMMUNITY LIBRARY,MILE 186 GLENN HIGHWAY,GLENNALLEN,99588,0173,VALDEZ-CORDOVA,9078225427,CE,NO,2000,R_09,0,R_09,2010,00,00,00,-146.369847,62.05552,02,261,48200,9324,43,1,2015,00,X
AK,AK0027,003,AK0027-003,COPPER VALLEY COMMUNITY LIBRARY,MILE 186  GLENN HIGHWAY,GLENNALLEN,99588,0173,VALDEZ-CORDOVA,9078225427,BS,NO,-3,U_09,-3,U_09,2010,03,00,00,-146.050333,62.198412,02,261,00000,9324,43,1,2001,00,X
AK,AK0028,002,AK0028-002,GUSTAVUS PUBLIC LIBRARY,14 GUSTAVUS ROAD,GUSTAVUS,99826,0279,SKAGWAY-ANGOON,9076972350,CE,NO,3052,R_09,0,R_09,2010,00,00,00,-136.855874,58.83307,02,230,00000,920,43,3,1001,00,X
AK,AK0029,002,AK0029-002,HAINES BOROUGH PUBLIC LIBRARY,111 THIRD AVENUE SOUTH,HAINES,99827,1089,HAINES,9077662545,CE,NO,8400,R_09,0,R_09,2010,00,00,00,-135.446889,59.2363,02,100,31050,2399,43,1,2026,00,0
AK,AK0030,002,AK0030-002,TRI-VALLEY COMMUNITY LIBRARY,400 SUNTRANA STREET,HEALY,99743,0518,DENALI,9076832507,CE,NO,4560,R_09,0,R_09,2010,00,00,15,-148.563331,64.014,02,068,00000,1851,43,1,2002,00,X
AK,AK0031,002,AK0031-002,HOLLIS PUBLIC LIBRARY,NO. 1 HOLLIS SCHOOL ROAD,HOLLIS,99950,0005,PR WALES-OUTER KE,9075307011,CE,NO,2300,R_09,0,R_09,2010,00,00,15,-132.878786,55.76289,02,198,00000,5560,43,1,1066,00,X
AK,AK0032,002,AK0032-002,HOMER PUBLIC LIBRARY,500 HAZEL AVENUE,HOMER,99603,7849,KENAI PENINSULA,9072353180,CE,NO,17000,R_09,0,R_09,2010,00,00,00,-151.544372,59.63993,02,122,33140,54665,43,10,1043,00,2
AK,AK0035,002,AK0035-002,DOUGLAS PUBLIC LIBRARY,1016 THIRD STREET,DOUGLAS,99824,5416,JUNEAU,9073642378,BR,NO,8000,R_09,0,R_09,2010,00,00,00,-134.391732,58.2758,02,110,36400,30796,33,6,3002,00,0
AK,AK0035,003,AK0035-003,MENDENHALL VALLEY PUBLIC LIBRARY,"9105 MENDENHALL MALL ROAD, #134",JUNEAU,99801,7156,JUNEAU,9077890125,BR,NO,9391,R_09,0,R_09,2010,00,00,00,-134.582292,58.37117,02,110,36400,30796,33,2,5014,00,0
AK,AK0035,004,AK0035-004,JUNEAU PUBLIC LIBRARIES,292 MARINE WAY,JUNEAU,99801,1361,JUNEAU,9075865324,CE,NO,17000,R_09,0,R_09,2010,00,00,00,-134.400041,58.29759,02,110,36400,30796,33,5,2042,00,0
AK,AK0037,002,AK0037-002,KASILOF PUBLIC LIBRARY,58200 STERLING HIGHWAY,KASILOF,99610,0176,KENAI PENINSULA,9072524097,CE,NO,2553,R_09,0,R_09,2010,00,00,00,-151.225689,60.3424,02,122,38090,54665,43,7,5032,00,0
AK,AK0038,002,AK0038-002,KENAI COMMUNITY LIBRARY,163 MAIN STREET LOOP,KENAI,99611,7723,KENAI PENINSULA,9072834378,CE,NO,10000,R_09,0,R_09,2010,00,00,00,-151.244012,60.55813,02,122,38420,54665,33,6,3027,00,0
AK,AK0039,002,AK0039-002,KETCHIKAN PUBLIC LIBRARY,629 DOCK STREET,KETCHIKAN,99901,6589,KETCHIKAN GATEWAY,9072253331,CE,NO,6100,R_09,0,R_09,2010,00,00,00,-131.650775,55.34479,02,130,38970,13005,33,3,2016,00,0
AK,AK0040,002,AK0040-002,A. HOLMES JOHNSON MEMORIAL LIBRARY,319 LOWER MILL BAY ROAD,KODIAK,99615,7341,KODIAK ISLAND,9074868688,CE,NO,9202,R_09,0,R_09,2010,00,00,00,-152.398502,57.79393,02,150,40950,13346,33,3,2016,00,0
AK,AK0041,002,AK0041-002,CHUKCHI CONSORTIUM LIBRARY,604 THIRD STREET,KOTZEBUE,99752,0297,NORTHWEST ARCTIC,9074422410,CE,NO,1700,R_09,0,R_09,2010,00,00,00,-162.587444,66.89788,02,188,41830,7444,33,2,2006,00,0
AK,AK0041,003,AK0041-003,SELAWIK DAVIS RAMOTH COMMUNITY LIBRARY,2600 MUSK OX PARKWAY,SELAWIK,99770,0119,NORTHWEST ARCTIC,9074842142,BR,NO,2000,R_09,0,R_09,2010,00,00,15,-159.568511,66.29617,02,188,00000,7444,43,1,4000,00,X
AK,AK0042,002,AK0042-002,KOYUKUK COMMUNITY LIB,P. O. BOX 29,KOYUKUK,99754,0029,YUKON-KOYUKUK,9079272245,CE,NO,-1,U_09,0,R_09,2010,08,00,00,-157.67622,64.88745,02,290,42050,5627,43,3,3071,00,X
AK,AK0044,002,AK0044-002,MCGRATH COMMUNITY SCHOOL LIBRARY,CHINANA AVENUE,MCGRATH,99627,0249,YUKON-KOYUKUK,9075243843,CE,NO,1650,R_09,0,R_09,2010,00,00,00,-154.958831,62.94694,02,290,00000,5627,43,4,2100,00,X
AK,AK0046,002,AK0046-002,CENTENNIAL LIBRARY,4TH & MILTON STREET,METLAKATLA,99926,0007,PR WALES-OUTER KE,9078866000,CE,NO,1080,R_09,0,R_09,2010,00,00,00,-131.582243,55.13203,02,198,48870,5560,43,4,2003,00,0
AK,AK0047,003,AK0047-003,SOUTH NAKNEK PUBLIC LIBRARY,SCHOOL ROAD,SOUTH NAKNEK,99670,0086,BRISTOL BAY,9072466513,BR,NO,840,R_09,0,R_09,2010,00,06,15,-156.906305,58.69046,02,060,72190,881,43,1,1017,00,X
AK,AK0047,004,AK0047-004,MARTIN MONSEN REGIONAL LIBRARY,101 MAIN STREET,NAKNEK,99633,0147,BRISTOL BAY,9072464465,CE,NO,1456,R_09,0,R_09,2010,00,00,00,-156.710141,58.84785,02,060,00000,881,43,1,1001,00,X
AK,AK0048,002,AK0048-002,NENANA PUBLIC LIBRARY,201 EAST SECOND STREET,NENANA,99760,0040,YUKON-KOYUKUK,9078325812,CE,NO,2421,R_09,0,R_09,2010,00,00,00,-149.092702,64.56222,02,290,53050,5627,43,2,2151,00,0
AK,AK0051,002,AK0051-002,NINILCHIK COMMUNITY LIBRARY,15850 STERLING HIGHWAY,NINILCHIK,99639,0165,KENAI PENINSULA,9075673333,CE,NO,3200,R_09,0,R_09,2010,00,00,00,-151.691726,60.0275,02,122,31710,54665,43,8,1026,00,0
AK,AK0052,002,AK0052-002,KEGOAYAH KOZGA LIBRARY,223 FRONT STREET,NOME,99762,1168,NOME,9074436628,CE,NO,1800,R_09,0,R_09,2010,00,00,00,-165.40543,64.49731,02,180,54920,9391,33,2,3021,00,0
AK,AK0053,002,AK0053-002,NORTHWAY COMMUNITY/SCHOOL LIBRARY,MILE 5 NORTHWAY ROAD,NORTHWAY,99764,0496,SE FAIRBANK,9077782301,CE,NO,2562,R_09,0,R_09,2010,00,00,00,-141.945631,62.94483,02,240,00000,6892,43,1,1173,00,X
AK,AK0055,002,AK0055-002,PALMER PUBLIC LIBRARY,655 SOUTH VALLEY WAY,PALMER,99645,6667,MATANUSKA-SUSITNA,9077454690,CE,NO,11400,R_09,0,R_09,2010,00,00,00,-149.113741,61.59847,02,170,58660,88379,32,12,3047,00,0
AK,AK0056,002,AK0056-002,PELICAN PUBLIC LIBRARY,166 SALMON WAY,PELICAN,99832,0712,SKAGWAY-ANGOON,9077352500,CE,NO,1200,R_09,0,R_09,2010,00,00,00,-136.135508,58.10796,02,230,00000,920,43,3,2047,00,X
AK,AK0057,002,AK0057-002,PETERSBURG PUBLIC LIBRARY,12 SOUTH NORDIC DRIVE,PETERSBURG,99833,0549,WRANGELL-PETERSBU,9077723349,CE,NO,2645,R_09,0,R_09,2010,00,00,00,-132.958255,56.80848,02,275,60310,2147,33,2,2000,00,0
AK,AK0058,002,AK0058-002,JESSIE WAKEFIELD MEMORIAL LIBRARY,207 SPRUCE DRIVE,PORT LIONS,99550,0049,KODIAK ISLAND,9074542288,CE,NO,1360,R_09,0,R_09,2010,00,00,00,-152.883298,57.87453,02,150,63610,13346,43,1,2014,00,X
AK,AK0061,002,AK0061-002,ST. PAUL ISLAND SCHOOL/COMMUNITY LIBRARY,930 TOLSTOI BOULEVARD,ST. PAUL,99660,0905,ALEUTIANS WEST,9075463324,CE,NO,1280,R_09,0,R_09,2010,00,00,00,-170.27885,57.18359,02,016,66470,4659,43,1,1001,00,X
AK,AK0064,002,AK0064-002,SELDOVIA PUBLIC LIBRARY,260 SELDOVIA STREET,SELDOVIA,99663,0275,KENAI PENINSULA,9072347856,CE,NO,1923,R_09,0,R_09,2010,00,00,00,-151.531478,59.64462,02,122,33140,54665,43,10,1034,00,X
AK,AK0065,002,AK0065-002,SEWARD COMMUNITY LIBRARY,238 5TH AVENUE,SEWARD,99664,2389,KENAI PENINSULA,9072244008,CE,NO,7900,R_09,0,R_09,2010,00,00,00,-149.438759,60.10178,02,122,68560,54665,43,13,2079,00,0
AK,AK0067,002,AK0067-002,KETTLESON MEMORIAL LIBRARY,320 HARBOR DRIVE,SITKA,99835,7570,SITKA,9077474021,CE,NO,7300,R_09,0,R_09,2010,00,00,00,-135.334496,57.04958,02,220,70540,8747,33,2,4008,00,0
AK,AK0068,002,AK0068-002,SKAGWAY PUBLIC LIBRARY,769 STATE STREET,SKAGWAY,99840,0394,SKAGWAY-ANGOON,9079832665,CE,NO,3220,R_09,0,R_09,2010,00,00,00,-135.308005,59.46061,02,230,70760,920,43,1,1094,00,0
AK,AK0069,002,AK0069-002,SOLDOTNA PUBLIC LIBRARY,235 NORTH BINKLEY STREET,SOLDOTNA,99669,7523,KENAI PENINSULA,9072624227,CE,NO,14033,R_09,0,R_09,2010,00,00,00,-151.072559,60.49234,02,122,71640,54665,33,5,3024,00,0
AK,AK0070,002,AK0070-002,SUTTON PUBLIC LIBRARY,11317 NORTH JONESVILLE MINE ROAD,SUTTON,99674,0266,MATANUSKA-SUSITNA,9077454467,CE,NO,2255,R_09,0,R_09,2010,00,00,00,-148.943896,61.7554,02,170,74525,88379,43,2,1118,00,X
AK,AK0071,001,AK0071-002,TAKOTNA COMMUNITY LIBRARY,RIVERSIDE DRIVE,TAKOTNA,99675,7529,YUKON-KOYUKUK,9072982229,CE,NO,160,R_09,0,R_09,2010,00,00,00,-156.124971,62.97515,02,290,74610,5627,43,4,2049,00,X
AK,AK0072,002,AK0072-002,TALKEETNA PUBLIC LIBRARY,23151 SOUTH TALKEETNA SPUR ROAD,TALKEETNA,99676,0768,MATANUSKA-SUSITNA,9077332359,CE,NO,2590,R_09,0,R_09,2010,00,00,00,-149.889417,62.17843,02,170,86470,88379,43,1,2026,00,X
AK,AK0073,002,AK0073-002,TANANA COMMUNITY/SCHOOL LIBRARY,89 FRONT STREET,TANANA,99777,7109,YUKON-KOYUKUK,9073667211,CE,NO,1125,R_09,0,R_09,2010,00,00,00,-151.892209,65.3268,02,290,00000,5627,43,2,1125,00,X
AK,AK0074,002,AK0074-002,DERMOTT O'TOOLE MEMORIAL LIBRARY,707 WEST TENAKEE AVENUE,TENAKEE SPRINGS,99841,0035,SKAGWAY-ANGOON,9077362248,CE,NO,896,R_09,0,R_09,2010,00,00,00,-135.212133,57.77754,02,230,76260,920,43,3,3038,00,X
AK,AK0075,002,AK0075-002,TOK COMMUNITY LIBRARY,MILE 1314 ALASKA HIGHWAY,TOK,99780,0227,SE FAIRBANK,9078835623,CE,NO,960,R_09,0,R_09,2010,00,00,00,-142.249751,63.9214,02,240,00000,6892,43,1,1110,00,X
AK,AK0076,002,AK0076-002,TICASUK LIBRARY,28 HAPPY VALLEY ROAD,UNALAKLEET,99684,0028,NOME,9076243053,CE,NO,364,R_09,0,R_09,2010,08,00,15,-160.921,63.631463,02,180,00000,9391,43,1,4053,00,X
AK,AK0077,002,AK0077-002,VALDEZ CONSORTIUM LIBRARY,212 FAIRBANKS STREET,VALDEZ,99686,0609,VALDEZ-CORDOVA,9078354632,CE,NO,15000,R_09,0,R_09,2010,00,00,00,-146.353761,61.12918,02,261,82200,9324,43,3,5004,00,0
AK,AK0078,002,AK0078-002,WASILLA PUBLIC LIBRARY,391 NORTH MAIN STREET,WASILLA,99654,7085,MATANUSKA-SUSITNA,9073732242,CE,NO,7687,R_09,0,R_09,2010,00,00,00,-149.441507,61.58256,02,170,83080,88379,32,8,3024,00,0
AK,AK0080,002,AK0080-002,WILLOW PUBLIC LIBRARY,23557 WEST WILLOW COMMUNITY CENTER,WILLOW,99688,0129,MATANUSKA-SUSITNA,9074957323,CE,NO,4111,R_09,0,R_09,2010,00,00,00,-150.98442,61.67003,02,170,00000,88379,43,1,1170,00,X
AK,AK0081,002,AK0081-002,IRENE INGLE PUBLIC LIBRARY,124 SECOND AVENUE,WRANGELL,99929,0679,WRANGELL,9078743535,CE,NO,5930,R_09,0,R_09,2010,00,00,00,-132.378872,56.45098,02,275,86380,2147,43,3,1002,00,X
AK,AK0082,002,AK0082-002,AKIAK SCHOOL/COMMUNITY LIBRARY,1 KILBUCK ROAD,AKIAK,99552,0049,BETHEL,9077654631,CE,NO,2500,R_09,0,R_09,2010,00,00,00,-161.191724,60.88718,02,050,00870,17352,43,1,3976,00,X
AK,AK0085,004,AK0085-002,FRANCES KIBBLE KENNY LAKE PUBLIC LIBRARY,MILE 5 EDGERTON HIGHWAY,KENNY LAKE,99573,9704,VALDEZ-CORDOVA,9078223015,CE,NO,1440,R_09,0,R_09,2010,00,00,00,-143.873988,61.66443,02,261,00000,9324,43,1,4000,00,X
AK,AK0091,002,AK0091-002,TULUKSAK SCHOOL/COMMUNITY LIBRARY,PHILLIP STREET,TULUKSAK,99679,0115,BETHEL,9076955636,CE,NO,1495,R_09,0,R_09,2010,00,00,00,-160.95319,61.10831,02,050,78790,17352,43,1,3013,00,X
AK,AK0092,004,AK0092-002,NAQIAKSRAT LIBRARY,ROCKY ROAD & FISH RIVER ROAD,WHITE MOUNTAIN,99784,0130,NOME,9076383411,CE,NO,562,R_09,0,R_09,2010,00,00,00,-162.561429,65.00544,02,180,00000,9391,43,1,3056,00,X
AK,AK0094,003,AK0094-003,ALAK COMMUNITY/SCHOOL LIBRARY,567 MAIN STREET,WAINWRIGHT,99782,0010,NORTH SLOPE,9077632541,BR,NO,2225,R_09,0,R_09,2010,00,00,00,-160.024847,70.63911,02,185,82750,6752,43,2,2016,00,0
AK,AK0094,004,AK0094-004,TIKIGAK SCHOOL/COMMUNITY LIBRARY,1837 TIKIGAQ AVENUE,POINT HOPE,99766,0148,NORTH SLOPE,9073682662,BR,NO,2849,R_09,0,R_09,2010,00,00,00,-166.771754,68.34605,02,185,61630,6752,43,2,1030,00,0
AK,AK0094,005,AK0094-005,NUNAMIUT SCHOOL/COMMUNITY LIBRARY,114 ILLINOIS AVENUE,ANAKTUVUK PASS,99721,0001,NORTH SLOPE,9076613226,BR,NO,1230,R_09,0,R_09,2010,00,00,00,-151.7245,68.14689,02,185,02080,6752,43,2,3093,00,X
AK,AK0094,006,AK0094-006,MEADE RIVER SCHOOL/COMMUNITY LIBRARY,4001 KIPPI STREET,ATQASUK,99791,0001,NORTH SLOPE,9076336315,BR,NO,800,R_09,0,R_09,2010,00,00,00,-157.418523,70.47538,02,185,04500,6752,43,2,2044,00,0
AK,AK0094,007,AK0094-007,HAROLD KAVEOLOOK SCHOOL/COMMUNITY LIBRARY,2001 BARTER AVENUE,KAKTOVIK,99747,0020,NORTH SLOPE,9076406626,BR,NO,2880,R_09,0,R_09,2010,00,00,00,-143.631181,70.12908,02,185,36990,6752,43,2,3017,00,0
AK,AK0094,008,AK0094-008,NUIQSUT TRAPPER SCHOOL/COMMUNITY LIBRARY,3310  3RD AVENUE,NUIQSUT,99789,0167,NORTH SLOPE,9074806712,BR,NO,1305,R_09,0,R_09,2010,00,00,00,-151.00117,70.22312,02,185,56320,6752,43,2,3120,00,0
AK,AK0094,009,AK0094-009,KALI SCHOOL/COMMUNITY LIBRARY,1029 QASIGIALIK STREET,POINT LAY,99759,0001,NORTH SLOPE,9078332311,BR,NO,888,R_09,0,R_09,2010,00,00,00,-163.016573,69.741,02,185,61700,6752,43,2,1004,00,0
AK,AK0094,010,AK0094-010,TUZZY CONSORTIUM LIBRARY,5421 NORTH STAR STREET,BARROW,99723,2130,NORTH SLOPE,9078524050,CE,NO,7000,R_09,0,R_09,2010,00,00,00,-156.75342,71.29845,02,185,05200,6752,33,1,1082,00,0
AK,AK0095,002,AK0095-002,AKIACHAK SCHOOL/COMMUNITY LIBRARY,1 MAIN STREET,AKIACHAK,99551,0190,BETHEL,9078253600,CE,NO,1800,R_09,0,R_09,2010,00,00,00,-161.409778,60.8781,02,050,00000,17352,43,1,3950,00,X
AK,AK0097,002,AK0097-002,ESTHER GREENWALD LIBRARY,366 GARTEENI HIGHWAY,HOONAH,99829,0157,SKAGWAY-ANGOON,9079453611,CE,NO,4184,R_09,0,R_09,2010,00,00,00,-135.437574,58.10915,02,230,33360,920,43,3,2021,00,0
AK,AK0099,002,AK0099-002,MOOSE PASS PUBLIC LIBRARY,200 DEPOT ROAD,MOOSE PASS,99631,0154,KENAI PENINSULA,9072883111,CE,NO,360,R_09,0,R_09,2010,00,00,00,-149.508366,60.52465,02,122,50190,54665,43,3,1134,00,X
AK,AK0100,001,AK0100-002,NIKOLAI COMMUNITY/SCHOOL LIBRARY,TOP OF THE KUSKOKWIM SCHOOL BUILDIN,NIKOLAI,99691,9091,YUKON-KOYUKUK,9072932427,CE,NO,1640,R_09,0,R_09,2010,00,00,00,-154.374475,63.00669,02,290,54150,5627,43,4,2103,00,X
AK,AK0101,002,AK0101-002,SAND POINT COMMUNITY/SCHOOL LIBRARY,123 RED COVE ROAD,SAND POINT,99661,0269,ALEUTIANS EAST,9073832393,CE,NO,1950,R_09,0,R_09,2010,00,00,00,-160.487593,55.34761,02,013,67020,2744,43,1,3006,00,0
AK,AK0102,002,AK0102-002,EGEGIK VILLAGE LIBRARY,289 AIRPORT WAY,EGEGIK,99579,0029,LAKE AND PENINSULA,9072332211,CE,NO,1500,R_09,0,R_09,2010,00,00,00,-157.335327,58.17839,02,164,21150,1485,43,1,2011,00,X
AK,AK0103,002,AK0103-002,TRAPPER CREEK PUBLIC LIBRARY,8901 EAST DEVONSHIRE DRIVE,TRAPPER CREEK,99683,0388,MATANUSKA-SUSITNA,9077331546,CE,NO,2762,R_09,0,R_09,2010,00,00,00,-150.321414,61.41243,02,170,00000,88379,42,5,2083,00,X
AK,AK0104,002,AK0104-002,HOLY CROSS COMMUNITY/SCHOOL LIBRARY,210 TRAILWAY STREET,HOLY CROSS,99602,0210,YUKON-KOYUKUK,9074767131,CE,NO,1450,R_09,0,R_09,2010,00,00,00,-160.443036,62.22932,02,290,00000,5627,43,4,1017,00,X
AK,AK0113,002,AK0113-002,OUZINKIE TRIBAL MEDIA CENTER,130 THIRD STREET,OUZINKIE,99644,0130,KODIAK ISLAND,9076802323,CE,NO,600,R_09,0,R_09,2010,00,00,00,-152.508261,57.92122,02,150,58550,13346,42,1,2038,00,X
AK,AK0114,002,AK0114-002,ST. GEORGE ISLAND SCHOOL/COMMUNITY LIBRARY,NO. 1 ELEMENTARY SCHOOL ROAD,ST. GEORGE,99591,0959,ALEUTIANS WEST,9075463324,CE,NO,900,R_09,0,R_09,2010,00,00,00,-169.619142,56.58272,02,016,65800,4659,43,1,1045,00,X
AK,AK0115,002,AK0115-002,UNALASKA PUBLIC LIBRARY,63 ELEANOR DRIVE,UNALASKA,99685,1370,ALEUTIANS WEST,9075815060,CE,NO,9400,R_09,0,R_09,2010,00,00,00,-166.529689,53.87054,02,016,80770,4659,41,2,2003,00,0
AK,AK0116,001,AK0116-002,ANIAK PUBLIC LIBRARY,270 RIVERFRONT DRIVE,ANIAK,99557,0270,BETHEL,9076754435,CE,NO,400,R_09,0,R_09,2010,00,00,00,-156.683203,61.4908,02,050,00000,17352,43,3,2068,00,X
AK,AK0117,001,AK0117-002,HYDER PUBLIC LIBRARY,50 MAIN STREET,HYDER,99923,0050,PR WALES-OUTER,2506369148,CE,NO,1200,R_09,0,R_09,2010,00,00,00,-130.036515,55.92994,02,198,34570,5560,43,3,1024,00,0
AK,AK0120,001,AK0120-002,INNOKO RIVER COMMUNITY/SCHOOL LIBRARY,101 PINE STREET,SHAGELUK,99665,0049,YUKON-KOYUKUK,9074738206,CE,NO,512,R_09,0,R_09,2010,00,00,00,-159.798143,62.64145,02,290,00000,5627,43,4,1009,00,X
AK,AK0121,001,AK0121-002,ANVIK COMMUNITY/SCHOOL LIBRARY,1 AIRPORT ROAD,ANVIK,99558,0090,YUKON-KOYUKUK,9076636348,CE,NO,560,R_09,0,R_09,2010,00,00,00,-160.128556,63.27254,02,290,00000,5627,43,4,1020,00,X
AK,AK0122,001,AK0122-002,GRAYLING COMMUNITY/SCHOOL LIBRARY,DAVID LOUIS SCHOOL BUILDING,GRAYLING,99590,0090,YUKON-KOYUKUK,9074535185,CE,NO,576,R_09,0,R_09,2010,00,00,00,-159.683027,64.07926,02,290,00000,5627,43,3,3009,00,X
AK,AK0124,001,AK0124-002,LAKE MINCHUMINA COMMUNITY LIBRARY,123 AIRPORT WAY,LAKE MINCHUMINA,99757,0050,YUKON-KOYUKUK,9076743211,CE,NO,1100,R_09,0,R_09,2010,00,00,00,-152.385396,63.8005,02,290,42820,5627,43,4,2138,00,X
AK,AK0126,001,AK0126-002,IGIUGIG TRIBAL LIBRARY,1 AIRPORT ROAD,IGIUGIG,99613,4008,LAKE AND PENINSULA,9075333211,CE,NO,440,R_09,0,R_09,2010,00,00,00,-156.48296,58.73102,02,164,39630,1485,43,1,1078,00,X
AK,AK0127,001,AK0127-002,COFFMAN COVE COMMUNITY LIBRARY,105 DENALI ALLEY,COFFMAN COVE,99918,0135,PR WALES-OUTER KE,9073292233,CE,NO,2352,R_09,0,R_09,2010,00,00,07,-132.827778,56.013889,02,198,38970,5560,33,2,1030,00,X
AK,AK0129,001,AK0129-002,MOUNTAIN VILLAGE PUBLIC LIBRARY,1 SAINT MARY'S HIGHWAY,MOUNTAIN VILLAGE,99632,0085,WADE HAMPTON,9075912970,CE,NO,-3,U_09,-3,U_09,2010,03,00,00,-164.537503,62.1696,02,270,00000,7731,43,1,1063,00,X
AK,AK0130,001,AK0130-002,THORNE BAY PUBLIC LIBRARY,120 FREEMAN DRIVE,THORNE BAY,99919,0489,PR WALES-OUTER KE,9078283303,CE,NO,1120,R_09,0,R_09,2010,00,00,00,-132.52418,55.68823,02,198,77140,5560,43,1,2024,00,0
AK,AK0133,001,AK0133-002,PILOT POINT TRIBAL LIBRARY,2200 MAIN STREET,PILOT POINT,99649,0449,LAKE AND PENINSULA,9077972208,CE,NO,768,R_09,0,R_09,2010,00,00,00,-157.384464,57.52567,02,164,80100,1485,43,1,2050,00,X
AK,AK0134,001,AK0134-001,WHALE PASS COMMUNITY LIBRARY,BEACH ROAD LOT 3 BLOCK 14,WHALE PASS,99950,0280,PR WALES-OUTER KE,9078465226,CE,NO,1500,R_09,0,R_09,2010,00,00,00,-132.878786,55.76289,02,198,00000,5560,43,1,1066,00,X
AK,AK0135,001,AK0135-001,TOGIAK PUBLIC LIBRARY AND CULTURAL CENTER,SECOND AVENUE AND G STREET,TOGIAK,99678,0353,DILLINGHAM,9074935566,CE,NO,850,R_09,0,R_09,2010,00,00,00,-160.391925,59.06007,02,070,77690,4957,43,1,3008,00,X
AK,AK0136,001,AK0136-001,SCAMMON BAY PUBLIC LIBRARY,101 ASKINUK STREET,SCAMMON BAY,99662,0110,WADE HAMPTON,9075585400,CE,NO,220,R_09,0,R_09,2010,00,00,00,-165.080055,61.79161,02,270,00000,7731,43,1,4060,00,X
AK,AK0137,001,AK0137-001,KLUKWAN COMMUNITY/SCHOOL LIBRARY,315 MISSION STREET,KLUKWAN,99827,9800,HAINES,9077675551,CE,NO,754,R_09,0,R_09,2010,02,00,00,-135.443134,59.230122,02,100,31050,2399,43,1,3017,00,4
AL,AL0001,003,AL0001-003,CARL ELLIOTT REGIONAL LIBRARY SYSTEM,98 18TH STREET EAST,JASPER,35501,5491,WALKER,2052212568,CE,NO,20000,R_09,0,R_09,2010,00,00,00,-87.273906,33.83339,01,127,38416,68742,32,203,1050,04,0
AL,AL0002,002,100-001,ARLEY PUBLIC LIBRARY,6788 COUNTY ROAD 41,ARLEY,35541,0146,WINSTON,2053870129,CE,NO,6000,R_09,0,R_09,2010,00,00,00,-87.2234,34.04997,01,133,00000,23997,42,9955,6063,04,0
AL,AL0003,002,100-002,CORDOVA PUBLIC LIBRARY,84 MAIN STREET,CORDOVA,35550,1414,WALKER,2054839578,CE,NO,2500,R_09,0,R_09,2010,00,00,00,-87.182924,33.75642,01,127,17368,68742,42,215,1026,04,2
AL,AL0005,002,100-004,DOUBLE SPRINGS PUBLIC LIBRARY,637 BLAKE DRIVE,DOUBLE SPRINGS,35553,0555,WINSTON,2054892412,CE,NO,1500,R_09,0,R_09,2010,00,00,00,-87.383461,34.14703,01,133,21280,23997,43,9956,2046,04,0
AL,AL0006,002,100-005,HALEYVILLE PUBLIC LIBRARY,913 20TH STREET,HALEYVILLE,35565,1323,WINSTON,2054867450,CE,NO,3600,R_09,0,R_09,2010,00,00,00,-87.623386,34.2263,01,133,32704,23997,32,9958,4001,04,0
AL,AL0007,002,100-006,JASPER PUBLIC LIBRARY,98 EAST 18TH STREET,JASPER,35501,5491,WALKER,2052218512,CE,NC,20000,R_09,0,R_09,2010,00,00,00,-87.273906,33.83339,01,127,38416,68742,32,203,1050,04,0
AL,AL0009,002,100-008,SUMITON PUBLIC LIBRARY,416 STATE STREET,SUMITON,35148,0010,WALKER,2056487451,CE,NC,2500,R_09,0,R_09,2010,00,00,00,-87.049527,33.74957,01,127,73848,68742,31,218,1037,04,0
AL,AL0010,002,101-000,CHEAHA REGIONAL LIBRARY,935 COLEMAN STREET,HEFLIN,36264,1359,CLEBURNE,2564637125,CE,NO,2200,IP08,0,R_09,2010,00,00,00,-85.588945,33.64375,01,029,33976,14759,42,9596,3047,03,0
AL,AL0010,006,AL0010-006,CHEAHA REGIONAL BOOKMOBILE,935 COLEMAN STREET,HEFLIN,36264,1313,CLEBURNE,2564637125,BS,NO,-3,U_09,2,R_09,2010,00,00,00,-85.588945,33.643758,01,029,33976,14759,42,9596,3047,03,0
AL,AL0011,002,101-001,ROANOKE - ANNIE L. AWBREY PUBLIC LIBRARY,736 COLLEGE STREET,ROANOKE,36274,1616,RANDOLPH,3348632632,CE,NO,9000,R_09,0,R_09,2010,00,06,00,-85.370667,33.1495,01,111,65040,22577,32,9905,3003,03,0
AL,AL0012,002,101-002,ASHLAND CITY PUBLIC LIBRARY,11 2ND AVENUE NORTH,ASHLAND,36251,0296,CLAY,2563543427,CE,NO,4000,R_09,0,R_09,2010,00,00,00,-85.837992,33.27473,01,027,02860,13640,42,9590,2058,03,0
AL,AL0013,002,999-028,SYLACUGA - B. B. COMER MEMORIAL LIBRARY,314 NORTH BROADWAY AVENUE,SYLACAUGA,35150,2528,TALLADEGA,2562490961,CE,NO,39000,R_09,0,R_09,2010,00,06,00,-86.250724,33.17185,01,121,74352,80242,32,118,1063,03,0
AL,AL0014,002,101-004,CHEROKEE COUNTY PUBLIC LIBRARY,310 MARY STREET,CENTRE,35960,2026,CHEROKEE,2569275838,CE,NO,10243,R_09,0,R_09,2010,00,00,00,-85.67641,34.14928,01,019,13648,24448,42,9559,1063,03,0
AL,AL0015,002,101-005,CHILDERSBURG - EARLE A. RAINWATER MEMORIAL LIBRARY,124 NINTH AVENUE SW,CHILDERSBURG,35044,1642,TALLADEGA,2563787239,CE,NO,9000,R_09,0,R_09,2010,00,06,00,-86.355664,33.27752,01,121,14464,80242,32,113,2001,03,0
AL,AL0016,002,101-006,LINCOLN PUBLIC LIBRARY,49 COMPLEX DRIVE,LINCOLN,35096,5096,TALLADEGA,2057637777,CE,NO,2000,R_09,0,R_09,2010,00,00,00,-86.122667,33.6044,01,121,43120,80242,42,102,2096,03,0
AL,AL0017,002,101-007,LINEVILLE PUBLIC LIBRARY,60119 HIGHWAY 49,LINEVILLE,36266,0482,CLAY,2563965162,CE,NO,2367,R_09,0,R_09,2010,00,00,00,-85.754449,33.31468,01,027,43264,13640,42,9589,2083,03,0
AL,AL0018,002,101-008,HEFLIN - LUCILE MORGAN PUBLIC LIBRARY,541 ROSS STREET,HEFLIN,36264,1339,CLEBURNE,2564632259,CE,NO,2400,R_09,0,R_09,2010,00,00,00,-85.587878,33.64374,01,029,33976,14759,42,9596,3047,03,0
AL,AL0019,002,101-009,OXFORD PUBLIC LIBRARY,110 EAST 6TH STREET,OXFORD,36203,1627,CALHOUN,2568311750,CE,NC,25000,R_09,0,R_09,2010,00,00,00,-85.83545,33.60969,01,015,57576,114081,13,12,1069,03,0
AL,AL0020,002,999-070,TALLADEGA - ARMSTRONG-OSBORNE PUBLIC LIBRARY,202 SOUTH STREET EAST,TALLADEGA,35160,2471,TALLADEGA,2563624211,CE,NO,24323,R_09,0,R_09,2010,00,06,00,-86.09972,33.43313,01,121,74592,80242,32,109,2040,03,0
AL,AL0022,002,999-033,ABBEVILLE MEMORIAL LIBRARY,301 KIRKLAND STREET,ABBEVILLE,36310,2419,HENRY,3345852818,CE,NO,4862,R_09,0,R_09,2010,00,00,00,-85.250486,31.56676,01,067,00124,16647,42,302,3005,02,0
AL,AL0023,003,AL0023-003,ARITON - DOT LANEY MEMORIAL LIBRARY,30 WEST MAIN STREET,ARITON,36311,0026,DALE,3347622463,CE,NC,746,R_09,0,R_09,2010,00,00,00,-85.719461,31.60018,01,045,02428,48147,42,201,1012,02,0
AL,AL0024,002,999-035,HEADLAND - BLANCHE R. SOLOMON MEMORIAL LIBRARY,17 PARK STREET,HEADLAND,36345,7417,HENRY,3346932706,CE,NO,4295,R_09,0,R_09,2010,00,06,00,-85.342198,31.35231,01,067,33856,16647,41,305,3024,02,0
AL,AL0025,002,999-061,BRUNDIDGE - TUPPER LIGHTFOOT MEMORIAL LIBRARY,164 SOUTH MAIN STREET,BRUNDIDGE,36010,1809,PIKE,3347352145,CE,NO,2299,R_09,0,R_09,2010,00,00,00,-85.815509,31.71897,01,109,10240,30461,42,9893,3002,02,0
AL,AL0026,002,999-079,OZARK - DALE COUNTY PUBLIC LIBRARY,416 JAMES STREET,OZARK,36360,2090,DALE,3347745480,CE,NC,17604,R_09,0,R_09,2010,00,00,00,-85.632774,31.45219,01,045,57648,48147,32,205,2021,02,0
AL,AL0029,002,517-001,CLIO - ELTON B. STEPHENS LIBRARY,17 SCHOOL STREET,CLIO,36017,9298,BARBOUR,3343972911,CE,NO,4880,R_09,0,R_09,2010,00,06,00,-85.612081,31.7087,01,005,15640,29737,43,9504,3026,02,0
AL,AL0030,002,517-003,LOUISVILLE PUBLIC LIBRARY,1951 MAIN STREET,LOUISVILLE,36048,0125,BARBOUR,3342665210,CE,NO,3234,R_09,0,R_09,2010,00,00,00,-85.555289,31.78378,01,005,44344,29737,43,9503,2052,02,0
AL,AL0031,002,999-077,MIDLAND CITY - MARY BERRY BROWN MEMORIAL LIBRARY,1318 HINTON WATERS AVENUE,MIDLAND CITY,36350,0713,DALE,3349839999,CE,NC,3176,R_09,0,R_09,2010,00,06,15,-85.489966,31.32686,01,045,48400,48147,41,214,5004,02,X
AL,AL0032,002,999-078,NEWTON PUBLIC LIBRARY,209 OATES DRIVE,NEWTON,36352,9588,DALE,3342993316,CE,NC,-1,U_09,0,R_09,2010,00,00,00,-85.596856,31.33194,01,045,54480,48147,41,213,1024,02,0
AL,AL0033,002,517-004,CLAYTON - TOWN AND COUNTY PUBLIC LIBRARY,45 NORTH MIDWAY STREET,CLAYTON,36016,0518,BARBOUR,3347753506,CE,NO,4040,R_09,0,R_09,2010,00,00,15,-85.458753,31.88456,01,005,15376,29737,43,9502,3006,02,0
AL,AL0034,002,999-060,TROY PUBLIC LIBRARY,300 NORTH THREE NOTCH STREET,TROY,36081,2022,PIKE,3345661314,CE,NO,11418,R_09,0,R_09,2010,00,00,00,-85.972212,31.8093,01,109,76920,30461,33,9890,1034,02,0
AL,AL0035,002,999-058,UNION SPRINGS PUBLIC LIBRARY,103 NORTH PRAIRIE STREET,UNION SPRINGS,36089,1616,BULLOCK,3347382760,CE,NO,4000,R_09,0,R_09,2010,00,00,00,-85.716105,32.14064,01,011,77880,10985,32,9522,3009,02,0
AL,AL0037,002,103-001,ANDALUSIA PUBLIC LIBRARY,212 SOUTH THREE NOTCH STREET,"ANDALUSIA, AL",36420,3799,COVINGTON,3342226612,CE,NO,11745,R_09,0,R_09,2010,00,00,00,-86.482943,31.3067,01,039,01708,36678,33,9621,1038,02,0
AL,AL0038,002,103-002,BRANTLEY PUBLIC LIBRARY,10 MLK DRIVE,BRANTLEY,36009,0045,CRENSHAW,3345278624,CE,NO,680,R_09,0,R_09,2010,00,00,15,-86.35482,31.59088,01,041,00000,13781,43,9638,1021,02,X
AL,AL0039,002,999-034,ELBA PUBLIC LIBRARY,406 SIMMONS STREET,ELBA,36323,1759,COFFEE,3348976921,CE,NO,5000,R_09,0,R_09,2010,00,00,00,-86.065581,31.4145,01,031,23296,48635,43,105,5002,02,0
AL,AL0040,002,103-004,GENEVA - EMMA KNOX KENAN PUBLIC LIBRARY,312 SOUTH COMMERCE STREET,GENEVA,36340,M,GENEVA,3346842459,CE,NO,2700,R_09,0,R_09,2010,00,00,00,-85.865083,31.03622,01,061,29464,25961,32,503,1029,02,0
AL,AL0041,002,999-041,ENTERPRISE PUBLIC LIBRARY,101 EAST GRUBBS STREET,ENTERPRISE,36330,2531,COFFEE,3343472636,CE,NO,12000,R_09,0,R_09,2010,00,00,00,-85.853377,31.31367,01,031,24184,48635,32,109,1029,02,0
AL,AL0042,002,103-006,FLORALA PUBLIC LIBRARY,1214 FOURTH STREET,FLORALA,36442,1814,COVINGTON,3348583525,CE,NO,3200,R_09,0,R_09,2010,00,00,00,-86.327219,31.00565,01,039,26848,36678,43,9630,4034,02,4
AL,AL0043,002,AL0043-002,HARTFORD - MCGREGOR-MCKINNEY PUBLIC LIBRARY,101 EAST FULTON STREET,HARTFORD,36344,1626,GENEVA,3345882384,CE,NO,2410,R_09,0,R_09,2010,00,14,00,-85.696666,31.09826,01,061,33424,25961,42,504,1063,02,0
AL,AL0044,002,103-008,LUVERNE PUBLIC LIBRARY,148 EAST THIRD AVENUE,LUVERNE,36049,1117,CRENSHAW,3343355326,CE,NO,5000,R_09,0,R_09,2010,00,00,00,-86.261602,31.71632,01,041,44728,13781,43,9637,4011,02,4
AL,AL0045,002,103-009,OPP PUBLIC LIBRARY,1604 NORTH MAIN STREET,OPP,36467,0717,COVINGTON,3344936423,CE,NO,8725,R_09,0,R_09,2010,00,00,00,-86.25497,31.30712,01,039,57120,36678,41,9624,3003,02,0
AL,AL0046,002,103-010,SAMSON PUBLIC LIBRARY,200 NORTH JOHNSON STREET,SAMSON,36477,2006,GENEVA,3348987806,CE,NO,900,R_09,0,R_09,2010,00,00,00,-86.046002,31.11811,01,061,67800,25961,43,501,2023,02,0
AL,AL0047,002,103-011,SLOCOMB PUBLIC LIBRARY,134 SOUTH DALTON AVENUE,SLOCOMB,36375,1026,GENEVA,3348863333,CE,NO,3528,R_09,0,R_09,2010,00,00,00,-85.593681,31.10703,01,061,71040,25961,42,505,1009,02,0
AL,AL0048,002,104-000,HORSESHOE BEND REGIONAL LIBRARY,207 NORTH WEST STREET,DADEVILLE,36853,1355,TALLAPOOSA,2568259232,CE,NO,8300,R_09,0,R_09,2010,00,00,00,-85.765401,32.83339,01,123,19336,41008,42,9924,2026,03,0
AL,AL0048,008,AL0048-008,HORSESHOE BEND REGIONAL BOOKMOBILE,207 NORTH WEST STREET,DADEVILLE,36853,1355,TALLAPOOSA,2568254554,BS,CC,-3,U_09,1,R_09,2010,00,00,00,-85.765401,32.833396,01,123,19336,41008,42,9924,2026,03,0
AL,AL0049,002,104-001,ALEXANDER CITY - ADELIA MCCONNELL RUSSELL LIBRARY,318 CHURCH STREET,ALEXANDER CITY,35010,5010,TALLAPOOSA,2563296796,CE,NO,10950,R_09,0,R_09,2010,00,14,00,-85.95393,32.94154,01,123,01132,41008,33,9923,1043,03,0
AL,AL0049,003,AL0049-003,MAMIE'S PLACE,284 CHURCH STREET,ALEXANDER CITY,35010,5010,TALLAPOOSA,2562344644,BR,CC,3250,R_09,0,R_09,2010,00,00,00,-85.953937,32.9417,01,123,01132,41008,33,9923,1043,03,0
AL,AL0050,002,104-002,DADEVILLE PUBLIC LIBRARY,205 NORTH WEST STREET,DADEVILLE,36853,1355,TALLAPOOSA,2568257820,CE,NO,1864,R_09,0,R_09,2010,00,00,00,-85.765401,32.83339,01,123,19336,41008,42,9924,2026,03,0
AL,AL0051,002,104-003,GOODWATER PUBLIC LIBRARY,36 WEOGUFKA STREET,GOODWATER,35072,M,COOSA,2568395741,CE,NO,4600,R_09,0,R_09,2010,00,00,00,-86.05253,33.06383,01,037,30640,10556,42,9610,3008,03,0
AL,AL0052,002,104-004,AUBURN PUBLIC LIBRARY,749 EAST THACH AVENUE,AUBURN,36830,5545,LEE,3345013190,CE,NO,34065,R_09,0,R_09,2010,00,00,00,-85.466427,32.60441,01,081,03076,135883,13,403,2000,03,0
AL,AL0053,002,104-005,OPELIKA - LEWIS COOPER JR. MEMORIAL LIBRARY,200 SOUTH 6TH STREET,OPELIKA,36801,M,LEE,3347055380,CE,NO,10000,R_09,0,R_09,2010,00,06,00,-85.375903,32.64908,01,081,57048,135883,13,416,2045,03,0
AL,AL0054,002,104-006,MILLBROOK PUBLIC LIBRARY,3650 GRANDVIEW ROAD,MILLBROOK,36054,0525,ELMORE,3342856688,CE,NC,6000,R_09,0,R_09,2010,00,00,00,-86.361986,32.47677,01,051,48712,79233,31,313,2000,02,0
AL,AL0055,002,104-007,ROCKFORD PUBLIC LIBRARY,110 MAIN STREET,ROCKFORD,35136,0128,COOSA,2563774911,CE,NO,820,R_09,0,R_09,2010,00,00,00,-86.225611,32.87139,01,037,65472,10556,43,9612,1072,03,0
AL,AL0056,002,104-008,TALLASSEE COMMUNITY PUBLIC LIBRARY,99 FREEMAN AVENUE,TALLASSEE,36078,2035,TALLAPOOSA,3342832732,CE,NO,5619,R_09,0,R_09,2010,00,06,00,-85.879175,32.54029,01,123,74688,41008,32,9927,5005,03,0
AL,AL0057,002,104-009,WETUMPKA PUBLIC LIBRARY,212 SOUTH MAIN STREET,WETUMPKA,36092,0249,ELMORE,3345671308,CE,NO,7000,R_09,0,R_09,2010,00,00,00,-86.206127,32.5334,01,051,81720,79233,31,307,1136,02,0
AL,AL0059,002,516-001,FLORENCE - LAUDERDALE PUBLIC LIBRARY,350 NORTH WOOD AVENUE,FLORENCE,35630,4706,LAUDERDALE,2567646564,CE,CC,42798,R_09,0,R_09,2010,00,06,00,-87.674645,34.80356,01,077,26896,89599,13,106,4007,05,0
AL,AL0060,002,999-039,TUSCUMBIA - HELEN KELLER PUBLIC LIBRARY,511 NORTH MAIN STREET,TUSCUMBIA,35674,2059,COLBERT,2563837065,CE,NC,10350,R_09,0,R_09,2010,00,00,00,-87.7035,34.73655,01,033,77280,54639,23,205,3002,05,0
AL,AL0061,002,999-042,LEIGHTON PUBLIC LIBRARY,8740 MAIN STREET,LEIGHTON,35646,M,COLBERT,2564465380,CE,NO,1900,R_09,0,R_09,2010,00,00,00,-87.528964,34.70015,01,033,42160,54639,42,208.0200043,4011,05,0
AL,AL0062,002,999-050,MUSCLE SHOALS PUBLIC LIBRARY,1918 EAST AVALON AVENUE,MUSCLE SHOALS,35661,2402,COLBERT,2563869212,CE,NC,15800,R_09,0,R_09,2010,00,00,00,-87.64515,34.74444,01,033,53016,54639,13,207.0200043,4003,05,0
AL,AL0063,002,516-004,ROGERSVILLE PUBLIC LIBRARY,74 BANK STREET,ROGERSVILLE,35652,0192,LAUDERDALE,2562470151,CE,NC,6800,R_09,0,R_09,2010,00,00,00,-87.29206,34.82425,01,077,66216,89599,42,118,4027,05,0
AL,AL0064,002,999-066,SHEFFIELD PUBLIC LIBRARY,316 NORTH MONTGOMERY AVENUE,SHEFFIELD,35660,7610,COLBERT,2563865633,CE,NC,13000,R_09,0,R_09,2010,00,00,00,-87.698531,34.76144,01,033,69648,54639,23,202,1057,05,0
AL,AL0065,002,106-000,NORTHWEST REGIONAL LIBRARY,185 ASHWOOD DRIVE,WINFIELD,35594,1527,MARION,2054872330,CE,NO,-1,U_09,0,R_09,2010,00,00,00,-87.815049,33.93085,01,093,82992,29116,43,9847,2080,04,0
AL,AL0066,002,106-001,HAMILTON - CLYDE NIX PUBLIC LIBRARY,350 BEXAR AVENUE WEST,HAMILTON,35570,1944,MARION,2059214290,CE,NO,3650,R_09,0,R_09,2010,00,00,00,-87.992322,34.14318,01,093,32848,29116,43,9843,3055,04,0
AL,AL0067,002,106-002,KENNEDY PUBLIC LIBRARY,17885 HIGHWAY 96,KENNEDY,35574,0070,LAMAR,2055963670,CE,NO,864,R_09,0,R_09,2010,00,00,00,-87.976044,33.58605,01,075,39520,14200,42,302,2011,04,0
AL,AL0068,002,106-003,GUIN - MCHS COMMUNITY LIBRARY,8115 U.S. HIGHWAY 43,GUIN,35563,0549,MARION,2054682544,CE,NO,4000,R_09,0,R_09,2010,00,06,15,-87.89401,33.967,01,093,32224,29116,43,9846,3128,04,X
AL,AL0069,002,106-004,MILLPORT PUBLIC LIBRARY,920 BLACK STREET,MILLPORT,35576,0159,LAMAR,2056624286,CE,NO,3000,R_09,0,R_09,2010,00,00,00,-88.089351,33.56156,01,075,48808,14200,43,302,3037,04,0
AL,AL0070,002,106-005,RUSSELLVILLE PUBLIC LIBRARY,110 EAST LAWRENCE STREET,RUSSELLVILLE,35653,2349,FRANKLIN,2563321535,CE,NO,4000,R_09,0,R_09,2010,00,00,00,-87.730263,34.50473,01,059,67056,31091,32,9730,3060,04,0
AL,AL0071,002,106-006,SULLIGENT PUBLIC LIBRARY,514 ELM STREET,SULLIGENT,35586,0215,LAMAR,2056988631,CE,NO,2778,R_09,0,R_09,2010,00,00,00,-88.13174,33.90033,01,075,73728,14200,43,300,3052,04,0
AL,AL0072,002,106-007,VERNON - MARY WALLACE COBB MEMORIAL LIBRARY,110 FIRST AVENUE WEST,VERNON,35592,0357,LAMAR,2056956123,CE,NO,1870,R_09,0,R_09,2010,00,00,00,-88.109729,33.7091,01,075,00000,14200,43,301,4029,04,X
AL,AL0073,002,106-008,RED BAY - WEATHERFORD PUBLIC LIBRARY,307 4TH AVENUE SOUTH,RED BAY,35582,0870,FRANKLIN,2563569255,CE,NO,5000,R_09,0,R_09,2010,00,00,00,-88.149203,34.41045,01,059,63576,31091,43,9735,3045,04,X
AL,AL0074,002,106-009,WINFIELD PUBLIC LIBRARY,185 ASHWOOD DRIVE,WINFIELD,35594,0688,MARION,2054872484,CE,NO,3384,R_09,0,R_09,2010,00,00,00,-87.815049,33.93085,01,093,82992,29116,43,9847,2080,04,0
AL,AL0076,002,107-001,ATHENS - LIMESTONE PUBLIC LIBRARY,405 EAST SOUTH STREET,ATHENS,35611,2664,LIMESTONE,2562321233,CE,NO,10000,R_09,0,R_09,2010,00,00,00,-86.963939,34.7997,01,083,02956,78572,32,209,2021,05,4
AL,AL0077,002,107-002,DECATUR PUBLIC LIBRARY,504 CHERRY STREET NE,DECATUR,35602,1766,MORGAN,2563532993,CE,CC,26000,R_09,0,R_09,2010,00,00,00,-86.981692,34.6071,01,103,20104,117293,13,4,1061,05,0
AL,AL0078,002,107-003,HARTSELLE - WILLIAM BRADFORD HUIE PUBLIC LIBRARY,152 SPARKMAN STREET NW,HARTSELLE,35640,2402,MORGAN,2567739880,CE,NO,5500,R_09,0,R_09,2010,00,06,00,-86.934995,34.44423,01,103,33448,117293,31,53.02999878,6023,05,0
AL,AL0079,002,107-004,LAWRENCE COUNTY PUBLIC LIBRARY,401 COLLEGE STREET,MOULTON,35650,1483,LAWRENCE,2569740883,CE,NC,5000,R_09,0,R_09,2010,00,00,00,-87.29446,34.47587,01,079,51600,34106,41,9798,1026,05,0
AL,AL0080,002,AL0080-004,BALDWIN COUNTY LIBRARY COOPERATIVE,22251 PALMER STREET,ROBERTSDALE,36567,0399,BALDWIN,2519704011,CE,NC,7600,R_09,0,R_09,2010,00,00,00,-87.716869,30.54952,01,003,65208,179878,32,109.0199966,4018,01,0
AL,AL0080,004,500-000,BALDWIN COUNTY LIBRARY COOPERATIVE - BOOKMOBILE,22251 PALMER STREET,ROBERTSDALE,36567,0399,BALDWIN,2519781940,BS,NC,-3,U_09,1,R_09,2010,00,06,00,-87.716869,30.549529,01,003,65208,179878,32,109.0199966,4018,01,0
AL,AL0081,002,500-001,DAPHNE PUBLIC LIBRARY,2607 U.S. HIGHWAY 98,DAPHNE,36526,4222,BALDWIN,2516212818,CE,NC,20988,R_09,0,R_09,2010,00,00,00,-87.881612,30.59568,01,003,00000,179878,41,108,1034,01,4
AL,AL0082,002,500-002,FAIRHOPE PUBLIC LIBRARY,501 FAIRHOPE AVENUE,FAIRHOPE,36532,2111,BALDWIN,2519287483,CE,NC,39600,R_09,0,R_09,2010,00,00,15,-87.901851,30.52306,01,003,25240,179878,32,112.0100021,1097,01,0
AL,AL0083,002,999-072,FOLEY PUBLIC LIBRARY,319 EAST LAUREL AVENUE,FOLEY,36535,2680,BALDWIN,2519437665,CE,NC,21000,R_09,0,R_09,2010,00,00,00,-87.679613,30.40637,01,003,26992,179878,32,115,5084,01,0
AL,AL0084,002,500-004,BAY MINETTE PUBLIC LIBRARY,205 WEST SECOND STREET,BAY MINETTE,36507,4838,BALDWIN,2515801648,CE,NC,12200,R_09,0,R_09,2010,00,00,00,-87.776117,30.88258,01,003,04660,179878,32,105,1038,01,0
AL,AL0085,002,500-005,LOXLEY PUBLIC LIBRARY,1001 EAST LOXLEY AVENUE,LOXLEY,36557,0527,BALDWIN,2519645695,CE,NC,1678,R_09,0,R_09,2010,00,00,15,-87.752881,30.61993,01,003,44608,179878,42,109.0100021,2042,01,0
AL,AL0087,002,999-071,ROBERTSDALE PUBLIC LIBRARY,18301 PENNSYLVANIA STREET,ROBERTSDALE,36567,3072,BALDWIN,2519478960,CE,NC,2000,R_09,0,R_09,2010,00,00,00,-87.71341,30.55299,01,003,65208,179878,32,109.0199966,4004,01,0
AL,AL0088,002,500-008,GULF SHORES - THOMAS B. NORTON PUBLIC LIBRARY,221 WEST 19TH AVENUE,GULF SHORES,36542,3055,BALDWIN,2519681176,CE,NC,9000,R_09,0,R_09,2010,00,00,00,-87.69243,30.27247,01,003,32272,179878,32,114.0400009,1023,01,0
AL,AL0090,002,501-001,ADAMSVILLE PUBLIC LIBRARY,4825 MAIN STREET,ADAMSVILLE,35005,0241,JEFFERSON,2056743399,CE,NC,4759,R_09,0,R_09,2010,00,00,00,-86.953238,33.60013,01,073,00460,665027,21,121.0400009,4016,06,0
AL,AL0091,002,501-002,BESSEMER PUBLIC LIBRARY,400 19TH STREET N,BESSEMER,35020,5305,JEFFERSON,2054287882,CE,NC,28657,R_09,0,R_09,2010,00,00,00,-86.954666,33.4032,01,073,05980,665027,21,102,1043,07,0
AL,AL0092,002,501-003,MOUNTAIN BROOK - EMMET O'NEAL LIBRARY,50 OAK STREET,MOUNTAIN BROOK,35213,4219,JEFFERSON,2058790459,CE,NC,40500,R_09,0,R_09,2010,00,00,00,-86.755554,33.50099,01,073,51696,665027,21,108.0100021,2030,06,0
AL,AL0093,002,501-004,FAIRFIELD - WALTER J. HANNA MEMORIAL LIBRARY,4615 GARY AVENUE,FAIRFIELD,35064,1341,JEFFERSON,2057836007,CE,NC,11410,R_09,0,R_09,2010,00,06,00,-86.915247,33.49128,01,073,25120,665027,21,106.0199966,1051,07,0
AL,AL0094,002,501-005,FULTONDALE PUBLIC LIBRARY,1015 OLD WALKERS CHAPEL ROAD,FULTONDALE,35068,0549,JEFFERSON,2058496335,CE,NC,6595,R_09,0,R_09,2010,00,00,00,-86.798343,33.60846,01,073,28552,665027,21,120.0199966,2017,06,0
AL,AL0095,002,501-006,GARDENDALE - MARTHA MOORE PUBLIC LIBRARY,995 MT. OLIVE ROAD,GARDENDALE,35071,4654,JEFFERSON,2056316639,CE,NC,7730,R_09,0,R_09,2010,00,00,00,-86.818643,33.6506,01,073,29056,665027,21,117.0299988,2027,06,0
AL,AL0096,002,501-007,GRAYSVILLE PUBLIC LIBRARY,315 SOUTH MAIN STREET,GRAYSVILLE,35073,1404,JEFFERSON,2056743040,CE,NC,4800,R_09,0,R_09,2010,00,00,00,-86.973327,33.62663,01,073,31384,665027,21,121.0299988,1018,06,0
AL,AL0097,002,501-008,HOMEWOOD PUBLIC LIBRARY,1721 OXMOOR ROAD,HOMEWOOD,35209,4085,JEFFERSON,2053326637,CE,NC,49627,R_09,0,R_09,2010,00,00,00,-86.795368,33.47552,01,073,35800,665027,21,107.0199966,1026,06,0
AL,AL0098,002,501-009,HOOVER PUBLIC LIBRARY,200 MUNICIPAL DRIVE,HOOVER,35216,5510,JEFFERSON,2054447800,CE,NC,85000,R_09,0,R_09,2010,00,00,00,-86.80588,33.3878,01,073,35896,665027,13,129.0800018,8084,06,0
AL,AL0099,002,501-010,HUEYTOWN PUBLIC LIBRARY,1372 HUEYTOWN ROAD,HUEYTOWN,35023,2443,JEFFERSON,2054911443,CE,NC,10000,R_09,0,R_09,2010,00,00,00,-86.997617,33.4491,01,073,36448,665027,21,100.0100021,2021,06,0
AL,AL0100,002,501-011,IRONDALE PUBLIC LIBRARY,105 SOUTH 20TH STREET,IRONDALE,35210,1593,JEFFERSON,2059511415,CE,NC,8000,R_09,0,R_09,2010,00,00,15,-86.706714,33.5379,01,073,37864,665027,21,126.0199966,4006,07,0
AL,AL0101,002,501-012,LEEDS - JANE CULBRETH LIBRARY,8104 PARKWAY DRIVE,LEEDS,35094,2225,JEFFERSON,2056995962,CE,NC,5000,R_09,0,R_09,2010,00,14,00,-86.561834,33.5398,01,073,41968,665027,41,110,4063,06,X
AL,AL0102,002,501-013,MIDFIELD PUBLIC LIBRARY,400 BRELAND DRIVE,MIDFIELD,35228,2732,JEFFERSON,2059231027,CE,NC,2800,R_09,0,R_09,2010,00,00,00,-86.915611,33.4576,01,073,48376,665027,21,132,3003,07,0
AL,AL0103,002,501-014,PLEASANT GROVE PUBLIC LIBRARY,501 PARK ROAD,PLEASANT GROVE,35127,0339,JEFFERSON,2057441742,CE,NC,-1,U_09,0,R_09,2010,00,00,00,-86.970232,33.49061,01,073,61008,665027,21,123.0299988,4022,06,0
AL,AL0104,002,501-015,TARRANT PUBLIC LIBRARY,1143 FORD AVENUE,TARRANT,35217,2437,JEFFERSON,2058410575,CE,NC,4500,R_09,0,R_09,2010,00,00,00,-86.770589,33.58359,01,073,74976,665027,21,109,5012,06,0
AL,AL0105,002,501-016,TRUSSVILLE PUBLIC LIBRARY,201 PARKWAY DRIVE,TRUSSVILLE,35173,1125,JEFFERSON,2056552022,CE,NC,12200,R_09,0,R_09,2010,00,00,00,-86.604659,33.62651,01,073,76944,665027,21,111.0599976,1188,06,0
AL,AL0106,002,501-017,VESTAVIA HILLS PUBLIC LIBRARY,1112 MONTGOMERY HIGHWAY,VESTAVIA HILLS,35216,2797,JEFFERSON,2059780155,CE,NC,16500,R_09,0,R_09,2010,00,00,00,-86.78852,33.4369,01,073,78552,665027,21,129.0099945,1058,06,0
AL,AL0107,002,501-018,WARRIOR PUBLIC LIBRARY,101 FIRST STREET,WARRIOR,35180,1500,JEFFERSON,2056473006,CE,NC,1800,R_09,0,R_09,2010,00,00,00,-86.807909,33.8134,01,073,79944,665027,31,114,2025,06,0
AL,AL0108,003,AL0108-003,BIRMINGHAM PUBLIC - AVONDALE REGIONAL LIBRARY,509 40TH STREET SOUTH,BIRMINGHAM,35222,3300,JEFFERSON,2052264000,BR,CC,13000,R_09,0,R_09,2010,00,06,00,-86.77394,33.52049,01,073,07000,665027,12,24,4014,07,0
AL,AL0108,004,AL0108-004,BIRMINGHAM PUBLIC - CENTRAL DOWNTOWN LIBRARY,2100 PARK PLACE,BIRMINGHAM,35203,2794,JEFFERSON,2052263600,CE,CC,229800,R_09,0,R_09,2010,00,06,00,-86.80784,33.52058,01,073,07000,665027,12,27,4029,07,0
AL,AL0108,005,AL0108-005,BIRMINGHAM PUBLIC - EAST ENSLEY BRANCH,900 14TH STREET - ENSLEY,BIRMINGHAM,35218,1206,JEFFERSON,2057871928,BR,CC,4000,R_09,0,R_09,2010,00,06,15,-86.889256,33.51512,01,073,07000,665027,12,33,1005,07,0
AL,AL0108,006,AL0108-006,BIRMINGHAM PUBLIC - EAST LAKE BRANCH,5 OPORTO-MADRID BLVD. SOUTH,BIRMINGHAM,35206,4800,JEFFERSON,2058363341,BR,CC,6000,R_09,0,R_09,2010,00,06,15,-86.727658,33.56058,01,073,07000,665027,12,20,3015,07,0
AL,AL0108,007,AL0108-007,BIRMINGHAM PUBLIC - EASTWOOD BRANCH,4500 MONTEVALLO ROAD,BIRMINGHAM,35210,3127,JEFFERSON,2055914944,BR,CC,2400,R_09,0,R_09,2010,00,06,15,-86.727178,33.51996,01,073,07000,665027,12,56,4003,06,0
AL,AL0108,008,AL0108-008,BIRMINGHAM PUBLIC - ENSLEY BRANCH,"1201 25TH STREET, ENSLEY",BIRMINGHAM,35218,1944,JEFFERSON,2057852625,BR,CC,6000,R_09,0,R_09,2010,00,06,15,-86.893697,33.50415,01,073,07000,665027,12,34,2028,07,0
AL,AL0108,009,AL0108-009,BIRMINGHAM PUBLIC - FIVE POINTS WEST BRANCH,4812 AVENUE W,BIRMINGHAM,35208,4704,JEFFERSON,2052264013,BR,CC,30000,R_09,0,R_09,2010,00,06,00,-86.873265,33.49323,01,073,07000,665027,12,39,1059,07,0
AL,AL0108,010,AL0108-010,BIRMINGHAM PUBLIC - INGLENOOK BRANCH,4100 40TH TERRACE NORTH,BIRMINGHAM,35217,4162,JEFFERSON,2058498739,BR,CC,2082,R_09,0,R_09,2010,00,06,00,-86.776613,33.56209,01,073,07000,665027,12,4,2002,07,0
AL,AL0108,011,AL0108-011,BIRMINGHAM PUBLIC - NORTH AVONDALE BRANCH,501 43RD STREET NORTH,BIRMINGHAM,35222,1417,JEFFERSON,2055922082,BR,CC,4250,R_09,0,R_09,2010,00,06,15,-86.772725,33.53147,01,073,07000,665027,12,24,1007,07,0
AL,AL0108,012,AL0108-012,BIRMINGHAM PUBLIC - NORTH BIRMINGHAM REGIONAL BRANCH,2501 31ST AVENUE NORTH,BIRMINGHAM,35207,4554,JEFFERSON,2052264025,BR,CC,14000,R_09,0,R_09,2010,00,06,00,-86.81972,33.55236,01,073,07000,665027,12,8,1035,07,0
AL,AL0108,013,AL0108-013,BIRMINGHAM PUBLIC - POWDERLY BRANCH,3301 JEFFERSON AVENUE SW,BIRMINGHAM,35221,9989,JEFFERSON,2059256178,BR,CC,5082,R_09,0,R_09,2010,00,06,00,-86.887658,33.46385,01,073,07000,665027,12,57.00999832,6007,07,0
AL,AL0108,014,AL0108-014,BIRMINGHAM PUBLIC - PRATT CITY BRANCH,1100 HIBERNIAN STREET,BIRMINGHAM,35214,5312,JEFFERSON,2057985071,BR,CC,5082,R_09,0,R_09,2010,00,06,00,-86.878319,33.54085,01,073,07000,665027,12,11,1023,07,0
AL,AL0108,015,AL0108-015,BIRMINGHAM PUBLIC - SLOSSFIELD BRANCH,"1916 25TH COURT, NORTH",BIRMINGHAM,35234,1028,JEFFERSON,2053221222,BR,CC,3600,R_09,0,R_09,2010,00,06,00,-86.825633,33.54391,01,073,07000,665027,12,8,6036,07,0
AL,AL0108,016,AL0108-016,BIRMINGHAM PUBLIC - SMITHFIELD BRANCH,18TH AVENUE WEST,BIRMINGHAM,35204,3724,JEFFERSON,2053248428,BR,CC,8100,R_09,0,R_09,2010,00,06,00,-86.837017,33.514,01,073,07000,665027,12,29,3012,07,4
AL,AL0108,017,AL0108-017,BIRMINGHAM PUBLIC - SOUTHSIDE BRANCH,1814 11TH AVENUE SOUTH,BIRMINGHAM,35205,5205,JEFFERSON,2059337776,BR,CC,8000,R_09,0,R_09,2010,00,06,00,-86.798842,33.49942,01,073,07000,665027,12,45,3076,07,0
AL,AL0108,018,AL0108-018,BIRMINGHAM PUBLIC - SPRINGVILLE ROAD REGIONAL BRANCH,1224 OLD SPRINGVILLE ROAD,BIRMINGHAM,35215,7512,JEFFERSON,2052264081,BR,CC,17100,R_09,0,R_09,2010,00,06,00,-86.676091,33.61603,01,073,07000,665027,12,59.08000183,2039,07,4
AL,AL0108,019,AL0108-019,BIRMINGHAM PUBLIC - TITUSVILLE BRANCH,26TH AVENUE SW,BIRMINGHAM,35211,2909,JEFFERSON,2053221140,BR,CC,9000,R_09,0,R_09,2010,00,06,00,-86.833121,33.49157,01,073,07000,665027,12,51.00999832,2018,07,4
AL,AL0108,020,AL0108-020,BIRMINGHAM PUBLIC - WEST END BRANCH,1348 TUSCALOOSA AVE. SW,BIRMINGHAM,35211,1929,JEFFERSON,2052264089,BR,CC,8000,R_09,0,R_09,2010,00,06,00,-86.854397,33.4926,01,073,07000,665027,12,40,4006,07,0
AL,AL0108,021,AL0108-021,BIRMINGHAM PUBLIC - WOODLAWN BRANCH,5709 FIRST AVENUE NORTH,BIRMINGHAM,35212,1603,JEFFERSON,2055952001,BR,CC,6500,R_09,0,R_09,2010,00,06,00,-86.750233,33.5421,01,073,07000,665027,12,3,1032,07,0
AL,AL0108,022,AL0108-022,BIRMINGHAM PUBLIC - WYLAM BRANCH,"4300 7TH AVENUE, WYLAM",BIRMINGHAM,35224,2624,JEFFERSON,2057850349,BR,CC,3100,R_09,0,R_09,2010,00,06,00,-86.919923,33.50572,01,073,07000,665027,12,35,2027,07,0
AL,AL0108,026,AL0108-026,BIRMINGHAM PUBLIC - MCCOY LITERACY LIBRARY,730 8TH AVE W. SUITE 320,BIRMINGHAM,35204,M,JEFFERSON,2053226371,BR,CC,-3,U_09,-3,U_09,2010,03,06,00,-86.847905,33.51182,01,073,07000,665027,12,30.02000046,2013,07,0
AL,AL0109,002,504-000,FORT PAYNE - DEKALB COUNTY PUBLIC LIBRARY,504 GRAND AVENUE NW,FORT PAYNE,35967,2314,DEKALB,2568452671,CE,NO,10193,R_09,0,R_09,2010,00,00,00,-85.720235,34.44492,01,049,27616,69380,32,9611,2039,04,0
AL,AL0109,005,AL0109-005,HENAGAR PUBLIC LIBRARY,17163 ALABAMA HWY 75 N,HENAGAR,35978,0039,DEKALB,2566571380,BR,NO,-1,U_09,0,R_09,2010,00,00,00,-85.742233,34.64011,01,049,34096,69380,43,9602,1018,04,X
AL,AL0109,006,AL0109-006,FORT PAYNE - DEKALB COUNTY BOOKMOBILE,504 GRAND AVENUE NW,FORT PAYNE,35967,2314,DEKALB,2568452671,BS,NO,-3,U_09,1,R_09,2010,00,00,00,-85.720235,34.444927,01,049,27616,69380,32,9611,2039,04,0
AL,AL0110,002,504-001,COLLINSVILLE PUBLIC LIBRARY,151 MAIN STREET,COLLINSVILLE,35961,0743,DEKALB,2565242323,CE,NO,3000,R_09,0,R_09,2010,00,00,07,-85.859286,34.263165,01,049,16600,69380,42,9608,3056,04,X
AL,AL0111,002,504-002,GERALDINE PUBLIC LIBRARY,13543 ALABAMA HIGHWAY 227,GERALDINE,35974,0268,DEKALB,2566596663,CE,NO,832,R_09,0,R_09,2010,00,00,00,-86.024644,34.36257,01,049,00000,69380,42,9606,3059,04,X
AL,AL0112,002,504-003,RAINSVILLE PUBLIC LIBRARY,941 EAST MAIN STREET,RAINSVILLE,35986,0509,DEKALB,2566383311,CE,NO,9100,R_09,0,R_09,2010,00,00,00,-85.82901,34.48679,01,049,63336,69380,42,9604,3035,04,0
AL,AL0113,003,505-000,ESCAMBIA COUNTY COOPERATIVE LIBRARY SYSTEM,700 EAST CHURCH STREET,ATMORE,36502,2694,ESCAMBIA,2513684130,CE,NO,360,R_09,0,R_09,2010,00,00,00,-87.485677,31.02261,01,053,03004,37434,32,9707,2036,01,0
AL,AL0114,002,505-001,ATMORE PUBLIC LIBRARY,700 E. CHURCH STREET,ATMORE,36502,2630,ESCAMBIA,2513685234,CE,NO,15000,R_09,0,R_09,2010,00,00,15,-87.485677,31.02261,01,053,03004,37434,32,9707,2036,01,0
AL,AL0115,002,505-002,BREWTON PUBLIC LIBRARY,206 WEST JACKSON STREET,BREWTON,36426,1518,ESCAMBIA,2518674626,CE,NO,7459,R_09,0,R_09,2010,00,00,00,-87.070522,31.12027,01,053,09208,37434,32,9701,2076,01,0
AL,AL0116,002,505-003,FLOMATON PUBLIC LIBRARY,608 MCCURDY STREET,FLOMATON,36441,M,ESCAMBIA,2512963552,CE,NO,9324,R_09,0,R_09,2010,00,00,00,-87.260156,31.00409,01,053,26824,37434,41,9703,3001,01,0
AL,AL0117,002,AL0117-002,GADSDEN - ETOWAH COUNTY PUBLIC LIBRARY,254 COLLEGE STREET,GADSDEN,35901,4135,ETOWAH,2565494699,CE,CC,50000,R_09,0,R_09,2010,00,00,00,-86.009857,34.01248,01,055,28696,103645,13,12,3046,04,0
AL,AL0117,005,506-000,GADSDEN - ETOWAH COUNTY PUBLIC - EAST GADSDEN BRANCH,921 WILSON AVENUE,GADSDEN,35903,M,ETOWAH,2565494691,BR,CC,1600,IP08,0,R_09,2010,00,06,00,-85.974665,34.0056,01,055,28696,103645,13,13,1011,04,0
AL,AL0118,002,999-082,ATTALLA - ETOWAH COUNTY PUBLIC LIBRARY,604 NORTH 4TH STREET,ATTALLA,35954,2033,ETOWAH,2565389266,CE,NC,2500,R_09,0,R_09,2010,00,00,00,-86.08743,34.02416,01,055,03028,103645,23,101,3017,04,4
AL,AL0119,002,506-002,RAINBOW CITY PUBLIC LIBRARY,3702 RAINBOW DRIVE,RAINBOW CITY,35906,6324,ETOWAH,2564428477,CE,NC,-1,U_09,0,R_09,2010,00,00,00,-86.059341,33.94185,01,055,63288,103645,23,104,4013,04,0
AL,AL0121,002,508-001,DEMOPOLIS PUBLIC LIBRARY,211 E. WASHINGTON STREET,DEMOPOLIS,36732,0122,MARENGO,3342891595,CE,NO,19980,R_09,0,R_09,2010,00,00,15,-87.836155,32.51734,01,091,20296,20943,33,9829,1052,07,0
AL,AL0121,003,AL0121-003,MARENGO LIBRARY SYSTEM BOOKMOBILE,211 EAST WASHINGTON STREET,DEMOPOLIS,36732,2133,MARENGO,3342891595,BS,NO,-3,U_09,-3,U_09,2010,03,06,00,-87.836155,32.517343,01,091,20296,20943,33,9829,1052,07,0
AL,AL0122,002,508-002,MARENGO COUNTY PUBLIC LIBRARY,507 NORTH MAIN STREET,LINDEN,36748,0519,MARENGO,3342952246,CE,NO,2300,R_09,0,R_09,2010,00,00,15,-87.798093,32.3112,01,091,43240,20943,43,9830,6024,07,0
AL,AL0123,004,509-000,MARSHALL COUNTY COOPERATIVE LIBRARY,600 COLLEGE AVENUE SUITE 100,ALBERTVILLE,35950,M,MARSHALL,2568788523,BS,NO,-3,U_09,1,R_09,2010,00,00,15,-86.210157,34.257263,01,095,00988,90399,32,309.019989,1026,04,0
AL,AL0124,002,509-001,ARAB PUBLIC LIBRARY,325 2ND STREET NW,ARAB,35016,1346,MARSHALL,2565863366,CE,NO,7691,R_09,0,R_09,2010,00,00,00,-86.49695,34.32038,01,095,02116,90399,32,304,5002,04,0
AL,AL0125,002,509-002,BOAZ PUBLIC LIBRARY,404 THOMAS AVE.,BOAZ,35957,2025,MARSHALL,2565938056,CE,NO,22650,R_09,0,R_09,2010,00,00,00,-86.161797,34.20079,01,095,07912,90399,32,312,4010,04,0
AL,AL0126,002,509-003,GUNTERSVILLE PUBLIC LIBRARY,1240 O'BRIG AVENUE,GUNTERSVILLE,35976,1431,MARSHALL,2565717595,CE,NO,14900,R_09,0,R_09,2010,00,00,00,-86.302149,34.34911,01,095,32416,90399,32,307,1016,04,0
AL,AL0127,002,509-004,ALBERTVILLE PUBLIC LIBRARY,200 JACKSON STREET,ALBERTVILLE,35950,0430,MARSHALL,2568918290,CE,NO,19536,R_09,0,R_09,2010,00,00,00,-86.203086,34.26443,01,095,00988,90399,32,308.0100098,4036,04,0
AL,AL0128,002,510-000,HARRISON REGIONAL LIBRARY SYSTEM,50 LESTER STREET,COLUMBIANA,35051,9477,SHELBY,2056693910,CE,NC,6997,R_09,0,R_09,2010,00,00,00,-86.607628,33.18538,01,117,16768,192503,42,307.019989,3000,06,0
AL,AL0128,004,BR,HARPERSVILLE PUBLIC LIBRARY,39397 HIGHWAY 25,HARPERSVILLE,35078,M,SHELBY,2056728336,BR,NO,500,R_09,0,R_09,2010,00,00,00,-86.431211,33.35281,01,117,33256,192503,42,301,1014,06,0
AL,AL0128,005,BR,WESTOVER PUBLIC LIBRARY,3312 WESTOVER ROAD,WESTOVER,35147,M,SHELBY,2056783375,BR,NO,225,R_09,0,R_09,2010,00,00,00,-86.530479,33.43831,01,117,00000,192503,42,302.019989,3000,06,X
AL,AL0129,002,510-001,ALABASTER - ALBERT L. SCOTT LIBRARY,100 9TH STREET N.W.,ALABASTER,35007,9172,SHELBY,2056646822,CE,NC,6400,R_09,0,R_09,2010,00,00,00,-86.82663,33.24435,01,117,00820,192503,21,303.1900024,2009,06,0
AL,AL0130,002,510-002,CALERA PUBLIC LIBRARY,9700 HIGHWAY 25,CALERA,35040,0690,SHELBY,2056683514,CE,NO,3200,R_09,0,R_09,2010,00,00,00,-86.76935,33.09693,01,117,11416,192503,42,305,1031,06,0
AL,AL0131,002,510-003,COLUMBIANA PUBLIC LIBRARY,50 LESTER STREET,COLUMBIANA,35051,M,SHELBY,2056695812,CE,NO,3300,R_09,0,R_09,2010,00,00,00,-86.607628,33.18538,01,117,16768,192503,42,307.019989,3000,06,0
AL,AL0132,002,510-004,HELENA - JANE B. HOLMES PUBLIC LIBRARY,230 TUCKER ROAD,HELENA,35080,0262,SHELBY,2056648308,CE,NC,6600,R_09,0,R_09,2010,00,00,00,-86.842523,33.2897,01,117,34024,192503,21,303.1700134,1003,06,0
AL,AL0133,002,510-005,VINCENT - LALLOUSE MCGRAW PUBLIC LIBRARY,42860 HIGHWAY 25,VINCENT,35178,M,SHELBY,2056722749,CE,NO,1500,R_09,0,R_09,2010,00,06,00,-86.416809,33.40527,01,117,79008,192503,42,301,4049,06,0
AL,AL0134,002,510-006,PARNELL MEMORIAL LIBRARY,277 PARK DRIVE,MONTEVALLO,35115,3720,SHELBY,2056659207,CE,NC,12375,R_09,0,R_09,2010,00,00,00,-86.861002,33.10291,01,117,50312,192503,31,304.0299988,1071,06,4
AL,AL0135,002,510-007,PELHAM PUBLIC LIBRARY,3160 PELHAM PARKWAY,PELHAM,35124,1627,SHELBY,2056206418,CE,NC,12000,R_09,0,R_09,2010,00,00,00,-86.810842,33.28794,01,117,58848,192503,21,303.1499939,2053,06,0
AL,AL0136,002,510-008,WILSONVILLE - VERNICE STOUDENMIRE LIBRARY,9905 NORTH MAIN STREET,WILSONVILLE,35186,M,SHELBY,2056696180,CE,NO,900,R_09,0,R_09,2010,00,00,15,-86.506998,33.22778,01,117,82848,192503,42,308,1064,06,X
AL,AL0137,002,AL0137-002,NORTH SHELBY COUNTY LIBRARY,5521 CAHABA VALLEY ROAD,BIRMINGHAM,35242,4901,SHELBY,2054395500,CE,NC,26000,R_09,0,R_09,2010,00,00,00,-86.681969,33.4042,01,117,00000,192503,21,303.0700073,1011,06,0
AL,AL0140,002,511-001,ALICEVILLE PUBLIC LIBRARY,416 THIRD AVENUE NE,"ALICEVILLE, AL",35442,2207,PICKENS,2053736691,CE,NO,3900,R_09,0,R_09,2010,00,00,00,-88.147839,33.12936,01,107,01228,19218,43,504,2166,07,0
AL,AL0141,002,511-002,CARROLLTON PUBLIC LIBRARY,225 COMMERCE AVENUE,CARROLLTON,35447,0092,PICKENS,2053672142,CE,NO,4635,R_09,0,R_09,2010,00,00,00,-88.09437,33.2571,01,107,12304,19218,42,503,2021,07,0
AL,AL0142,002,511-003,GORDO - RUTH HOLLIMAN MEMORIAL PUBLIC LIBRARY,287 MAIN STREET SOUTH,GORDO,35466,0336,PICKENS,2053647148,CE,NO,2800,R_09,0,R_09,2010,00,00,00,-87.903085,33.31819,01,107,30736,19218,42,500,3035,04,0
AL,AL0143,002,511-004,REFORM PUBLIC LIBRARY,302 FIRST STREET SOUTH,REFORM,35481,3548,PICKENS,2053756240,CE,NO,3815,R_09,0,R_09,2010,00,00,00,-88.015961,33.3767,01,107,64104,19218,42,501,2009,07,0
AL,AL0144,002,512-000,ST. CLAIR COUNTY LIBRARY,139 5TH AVENUE,ASHVILLE,35953,0308,ST. CLAIR,2055943694,CE,NC,1440,R_09,0,R_09,2010,00,00,00,-86.252711,33.83726,01,115,02908,81895,42,404,3075,04,0
AL,AL0144,003,512-000,STEELE PUBLIC LIBRARY,78 HILL TOP,STEELE,35987,0548,ST. CLAIR,2565380811,BR,NO,-1,U_09,0,R_09,2010,00,00,00,-86.255712,33.9179,01,115,00000,81895,42,404,5002,04,X
AL,AL0145,002,512-001,ASHVILLE PUBLIC LIBRARY,196 SIXTH AVENUE,ASHVILLE,35953,0187,ST. CLAIR,2055947954,CE,NC,1873,R_09,0,R_09,2010,00,00,00,-86.253868,33.8365,01,115,02908,81895,42,404,2012,04,0
AL,AL0146,002,512-002,MOODY - DORIS STANLEY MEMORIAL LIBRARY,1515 BOOKMARK LANE,MOODY,35004,2239,ST. CLAIR,2056402517,CE,NC,2800,R_09,0,R_09,2010,00,06,00,-86.485327,33.59208,01,115,51096,81895,41,401.019989,2083,06,2
AL,AL0147,002,512-003,ODENVILLE PUBLIC LIBRARY,200 ALABAMA STREET,ODENVILLE,35120,0249,ST. CLAIR,2056295901,CE,NC,3150,IP08,0,R_09,2010,00,00,00,-86.396318,33.68291,01,115,56400,81895,42,405.019989,2003,06,0
AL,AL0148,002,999-031,PELL CITY PUBLIC LIBRARY,1923 1ST AVENUE NORTH,PELL CITY,35125,1663,ST. CLAIR,2058841015,CE,NC,5400,R_09,0,R_09,2010,00,00,00,-86.285981,33.5872,01,115,58896,81895,41,402.0299988,3007,06,0
AL,AL0151,002,513-001,YORK - HIGHTOWER MEMORIAL LIBRARY,602 2ND AVENUE,YORK,36925,2604,SUMTER,2053922004,CE,NO,-1,U_09,0,R_09,2010,00,00,00,-88.296343,32.4864,01,119,84096,12853,43,9915,5036,07,0
AL,AL0152,002,513-002,LIVINGSTON - RUBY PICKENS TARTT PUBLIC LIBRARY,206 MONROE ST.,LIVINGSTON,35470,0377,SUMTER,2056522349,CE,NO,6000,R_09,0,R_09,2010,00,06,00,-88.189306,32.5843,01,119,43720,12853,43,9913,4031,07,0
AL,AL0154,002,514-001,ANNISTON AND CALHOUN COUNTY PUBLIC LIBRARY,108 EAST 10TH STREET,ANNISTON,36202,0308,CALHOUN,2562378503,CE,CC,33000,R_09,0,R_09,2010,00,00,00,-85.828184,33.65709,01,015,01852,114081,13,8,1040,03,0
AL,AL0154,003,514-001,ANNISTON AND CALHOUN  COUNTY - CARVER BRANCH,722 W. 14TH STREET,ANNISTON,36201,M,CALHOUN,2562377271,BR,CC,2000,R_09,0,R_09,2010,00,06,00,-85.838535,33.66233,01,015,01852,114081,13,5,1038,03,0
AL,AL0154,006,AL0154-006,ANNISTON AND CALHOUN COUNTY - BOOKMOBILE,108 EAST 10TH STREET,ANNISTON,36202,0308,CALHOUN,2562378501,BS,NO,-3,U_09,1,R_09,2010,00,06,00,-85.828184,33.657096,01,015,01852,114081,13,8,1040,03,0
AL,AL0155,002,514-002,JACKSONVILLE PUBLIC LIBRARY,200 PELHAM ROAD SOUTH,JACKSONVILLE,36265,2153,CALHOUN,2564356332,CE,NC,4702,R_09,0,R_09,2010,00,00,00,-85.761243,33.81522,01,015,38272,114081,23,21.01000023,2063,03,0
AL,AL0156,002,514-003,PIEDMONT PUBLIC LIBRARY,106 NORTH MAIN STREET,PIEDMONT,36272,2022,CALHOUN,2564473369,CE,NC,-1,U_09,0,R_09,2010,00,00,00,-85.613567,33.92345,01,015,59640,114081,32,23,4043,03,0
AL,AL0157,002,999-001,AKRON PUBLIC LIBRARY,207 FIRST AVENUE SOUTH,AKRON,35441,0008,HALE,2053723148,CE,NO,900,R_09,0,R_09,2010,00,00,00,-87.722532,32.84956,01,065,00000,17975,42,401,2029,07,X
AL,AL0158,003,999-002,ASHFORD BRANCH LIBRARY,305 SIXTH AVENUE,ASHFORD,36312,M,HOUSTON,3348993121,BR,NC,-1,U_09,0,R_09,2010,00,00,00,-85.23421,31.18159,01,069,02836,100085,42,419,4009,02,0
AL,AL0158,007,999-002,DOTHAN - ROSSIE PURCELL  BRANCH PUBLIC LIBRARY,200 SOUTH MAIN STREET,COLUMBIA,36319,M,HOUSTON,3346964417,BR,NC,-1,U_09,0,R_09,2010,00,06,00,-85.111794,31.29147,01,069,16744,100085,42,417,1023,02,0
AL,AL0158,008,999-002,DOTHAN / HOUSTON-LOVE MEMORIAL LIBRARY,212 WEST BURDESHAW STREET,DOTHAN,36302,1369,HOUSTON,3347939767,CE,CC,36000,R_09,0,R_09,2010,00,00,00,-85.394347,31.22795,01,069,21184,100085,13,406,3003,02,0
AL,AL0158,009,AL0158-009,DOTHAN / HOUSTON-LOVE MEMORIAL LIBRARY BOOKMOBILE,212 WEST BURDESHAW STREET,DOTHAN,36302,1369,HOUSTON,3347939767,BS,NO,-3,U_09,2,R_09,2010,00,00,00,-85.394347,31.227955,01,069,21184,100085,13,406,3003,02,0
AL,AL0159,002,999-003,BLOUNTSVILLE PUBLIC LIBRARY,65 CHESTNUT STREET,BLOUNTSVILLE,35031,0219,BLOUNT,2054293156,CE,NC,2000,R_09,0,R_09,2010,00,00,00,-86.589984,34.07894,01,009,07456,58345,42,505,3008,04,0
AL,AL0160,002,999-004,CHEROKEE PUBLIC LIBRARY,118 CHURCH STREET,CHEROKEE,35616,3333,COLBERT,2563594384,CE,NO,3060,R_09,0,R_09,2010,00,00,00,-87.972203,34.756,01,033,14152,54639,42,210,3021,05,0
AL,AL0161,002,999-005,BRENT - CENTREVILLE PUBLIC LIBRARY,20 LIBRARY STREET,CENTREVILLE,35042,2948,BIBB,2059264736,CE,NO,5000,R_09,0,R_09,2010,00,14,00,-87.150862,32.94501,01,007,13672,21587,41,101,2038,06,0
AL,AL0162,002,999-006,CHILTON - CLANTON PUBLIC LIBRARY,100 FIRST AVENUE,CLANTON,35045,3499,CHILTON,2057551768,CE,NO,42299,R_09,0,R_09,2010,00,00,00,-86.624538,32.84072,01,021,15136,42971,32,601.0200195,3027,06,0
AL,AL0162,003,999-006,CHILTON - CLANTON PUBLIC - JEMISON BRANCH LIBRARY,24568 US HIGHWAY 31,JEMISON,35085,0609,CHILTON,2056882920,BR,NO,1800,R_09,0,R_09,2010,00,06,00,-86.744404,32.96071,01,021,38608,42971,42,604.0200195,1042,06,0
AL,AL0162,004,999-006,CHILTON - CLANTON PUBLIC - MAPLESVILLE BRANCH,9400 MAIN STREET,MAPLESVILLE,36750,6750,CHILTON,3343664212,BR,NO,2500,R_09,0,R_09,2010,00,06,15,-86.873212,32.78327,01,021,46504,42971,43,605,2013,06,0
AL,AL0162,005,999-006,CHILTON - CLANTON PUBLIC - THORSBY BRANCH,21060 US HIGHWAY 31,THORSBY,35171,0608,CHILTON,2056463575,BR,NO,540,R_09,0,R_09,2010,00,06,00,-86.713378,32.91346,01,021,76080,42971,42,604.0100098,1069,06,0
AL,AL0163,002,999-007,CHOCTAW COUNTY PUBLIC LIBRARY,124 NORTH ACADEMY AVENUE,BUTLER,36904,2206,CHOCTAW,2054592542,CE,NO,7500,R_09,0,R_09,2010,00,00,00,-88.220066,32.09019,01,023,11032,13990,43,9568,4012,07,0
AL,AL0163,003,999-007,CHOCTAW COUNTY PUBLIC - GILBERTOWN BRANCH,251 COLLEGE STREET,GILBERTOWN,36908,M,CHOCTAW,2515753156,BR,NO,-1,U_09,0,R_09,2010,00,06,00,-88.313401,31.87288,01,023,29704,13990,43,9569,4037,07,0
AL,AL0163,004,999-007,CHOCTAW COUNTY PUBLIC - SILAS BRANCH,130 INDIAN WAY,SILAS,36919,M,CHOCTAW,2515429379,BR,NO,3120,R_09,0,R_09,2010,00,06,00,-88.327869,31.76811,01,023,70416,13990,43,9570,1053,07,0
AL,AL0164,002,999-008,CITRONELLE MEMORIAL LIBRARY,7855 STATE STREET,CITRONELLE,36522,2450,MOBILE,2518667319,CE,NC,5200,R_09,0,R_09,2010,00,00,00,-88.228948,31.09091,01,097,15064,411721,42,60,2002,01,0
AL,AL0165,002,999-009,GROVE HILL PUBLIC LIBRARY,108 DUBOSE AVENUE,GROVE HILL,36451,9502,CLARKE,2512758157,CE,NO,7431,R_09,0,R_09,2010,00,00,00,-87.775112,31.70534,01,025,32080,26042,43,9578,2024,01,0
AL,AL0166,003,999-010,HUNTSVILLE PUBLIC - BESSIE K. RUSSELL BRANCH,3011-C SPARKMAN DRIVE,HUNTSVILLE,35810,3713,MADISON,2568599050,BR,CC,2000,R_09,0,R_09,2010,00,06,00,-86.609953,34.76166,01,089,37000,327744,12,7.019999981,2012,05,0
AL,AL0166,005,999-010,HUNTSVILLE PUBLIC - ELEANOR E. MURPHY BRANCH,7910 CHARLOTTE DRIVE,HUNTSVILLE,35802,2862,MADISON,2568815620,BR,CC,3300,R_09,0,R_09,2010,00,06,00,-86.572824,34.66024,01,089,37000,327744,12,28.01000023,2000,05,0
AL,AL0166,006,999-010,GURLEY PUBLIC LIBRARY,225 WALKER STREET,GURLEY,35748,8330,MADISON,2567762102,BR,NC,3000,R_09,0,R_09,2010,00,00,00,-86.371853,34.69616,01,089,32440,327744,41,109.0199966,1025,05,0
AL,AL0166,008,999-010,HUNTSVILLE PUBLIC - MADISON BRANCH LIBRARY,130 PLAZA DRIVE,MADISON,35758,1160,MADISON,2564610046,BR,NC,15000,R_09,0,R_09,2010,00,06,00,-86.744321,34.70801,01,089,45784,327744,22,110.1399994,2000,05,0
AL,AL0166,009,999-010,HUNTSVILLE PUBLIC - ELIZABETH CARPENTER PUBLIC LIBRARY,5496 MAIN STREET,NEW HOPE,35760,8608,MADISON,2567232995,BR,NC,1950,R_09,0,R_09,2010,00,06,00,-86.394292,34.53672,01,089,54168,327744,42,114,2029,05,0
AL,AL0166,013,999-010,HUNTSVILLE PUBLIC - TRIANA BRANCH,640 6TH STREET,MADISON,35756,8237,MADISON,2567723677,BR,CC,850,R_09,0,R_09,2010,00,06,07,-86.734437,34.58322,01,089,76824,327744,41,112,3007,05,0
AL,AL0166,015,999-010,HUNTSVILLE - MADISON COUNTY PUBLIC LIBRARY BOOKMOBILE,915 MONROE STREET,HUNTSVILLE,35804,0443,MADISON,2565325950,BS,CC,-3,U_09,2,R_09,2010,00,06,00,-86.590277,34.723362,01,089,37000,327744,12,16,1009,05,0
AL,AL0166,016,999-010,HUNTSVILLE PUBLIC - BAILEY COVE BRANCH LIBRARY,1409 WEATHERLY PLAZA,HUNTSVILLE,35803,2617,MADISON,2568810257,BR,NC,9990,R_09,0,R_09,2010,00,06,00,-86.540386,34.6439,01,089,37000,327744,12,29.12000084,1011,05,0
AL,AL0166,017,AL0166-017,"HUNTSVILLE PUBLIC - DR. RICHARD SHOWERS, SR. LIBRARY",4600 BLUE SPRING ROAD,HUNTSVILLE,35810,1949,MADISON,2568517492,BR,CC,3000,R_09,0,R_09,2010,00,14,00,-86.59861,34.78332,01,089,37000,327744,12,3.00999999,3005,05,0
AL,AL0166,022,999-010,HUNTSVILLE PUBLIC - TILLMAN HILL BRANCH,131 KNOWLEDGE DRIVE,HAZEL GREEN,35750,M,MADISON,2568289529,BR,CC,5000,R_09,0,R_09,2010,00,06,00,-86.57297,34.9342,01,089,33808,327744,31,103.0100021,3010,05,0
AL,AL0166,023,999-010,HUNTSVILLE PUBLIC - MONROVIA BRANCH LIBRARY,254 ALLEN DRAKE ROAD,HUNTSVILLE,35806,1314,MADISON,2564893392,BR,NC,5000,R_09,0,R_09,2010,00,06,00,-86.71512,34.81194,01,089,00000,327744,41,105.0100021,2017,05,0
AL,AL0166,025,999-010,HUNTSVILLE - MADISON COUNTY PUBLIC LIBRARY,915 MONROE STREET,HUNTSVILLE,35804,0443,MADISON,2565325940,CE,CC,123000,R_09,0,R_09,2010,00,06,00,-86.590277,34.72336,01,089,37000,327744,12,16,1009,05,0
AL,AL0166,026,AL0166-026,HUNTSVILLE PUBLIC - OSCAR MASON BRANCH,149 MASON COURT,HUNTSVILLE,35805,2815,MADISON,2565352249,BR,NC,1428,R_09,0,R_09,2010,00,06,00,-86.605361,34.72734,01,089,37000,327744,12,12,3003,05,0
AL,AL0166,027,BR,HUNTSVILLE PUBLIC - RICHARD SHOWERS CENTER LIBRARY,4600 BLUE SPRING ROAD,HUNTSVILLE,35810,1949,MADISON,2568517492,BR,CC,-3,U_09,-3,U_09,2010,03,06,00,-86.59861,34.78332,01,089,37000,327744,12,3.00999999,3005,05,0
AL,AL0167,002,999-011,"EUTAW - JAMES C. POOLE, JR. MEMORIAL LIIBRARY",420 PRAIRIE AVENUE,EUTAW,35462,5114,GREENE,2053729026,CE,NO,6201,R_09,0,R_09,2010,00,14,00,-87.88783,32.84269,01,063,24664,8829,42,601,6048,07,0
AL,AL0168,002,999-012,GREENVILLE - BUTLER COUNTY PUBLIC LIBRARY,309 FORT DALE STREET,GREENVILLE,36037,1401,BUTLER,3343823216,CE,NO,13777,R_09,0,R_09,2010,00,00,00,-86.626174,31.8319,01,013,31912,19964,33,9528,1025,02,0
AL,AL0169,002,999-013,HALE COUNTY LIBRARY,1103 MAIN STREET,GREENSBORO,36744,0399,HALE,3346243409,CE,NO,2378,R_09,0,R_09,2010,00,00,00,-87.592238,32.70406,01,065,31720,17975,32,404,4000,07,0
AL,AL0170,002,999-014,CHICKASAW - INA PULLEN SMALLWOOD MEMORIAL LIBRARY,224 GRANT STREET,"CHICKASAW, AL 36671",36671,0449,MOBILE,2514526465,CE,NC,5979,R_09,0,R_09,2010,00,00,00,-88.077919,30.77059,01,097,14392,411721,21,52,1004,01,X
AL,AL0171,002,999-015,JACKSON - WHITE SMITH MEMORIAL LIBRARY,213 COLLEGE AVENUE,JACKSON,36451,0265,CLARKE,2512464962,CE,NO,10000,R_09,0,R_09,2010,00,06,00,-87.893736,31.51237,01,025,38152,26042,33,9579.019531,3023,01,0
AL,AL0172,002,999-016,MARION - PERRY COUNTY PUBLIC LIBRARY,202 WASHINGTON STREET,MARION,36756,1824,PERRY,3346836411,CE,NO,2100,R_09,0,R_09,2010,00,06,00,-87.31907,32.63421,01,105,46768,10623,43,9870,3046,07,0
AL,AL0173,002,999-017,WOODVILLE PUBLIC LIBRARY,26 VENSON STREET,WOODVILLE,35776,0116,JACKSON,2567762796,CE,NO,3643,R_09,0,R_09,2010,00,00,00,-86.274704,34.62723,01,071,83664,52838,42,9505,1062,05,0
AL,AL0174,002,999-018,CITY OF BAYOU LA BATRE PUBLIC LIBRARY,12747 PADGETT SWITCH ROAD,IRVINGTON,36544,4011,MOBILE,2518244213,CE,NC,3500,R_09,0,R_09,2010,00,06,00,-88.241606,30.4252,01,097,00000,411721,21,67,5017,01,0
AL,AL0175,002,999-019,SCOTTSBORO PUBLIC LIBRARY,1002 SOUTH BROAD STREET,SCOTTSBORO,35768,2512,JACKSON,2565744335,CE,NO,8500,R_09,0,R_09,2010,00,00,00,-86.035173,34.65779,01,071,68736,52838,32,9508,4067,05,0
AL,AL0176,002,999-020,ONEONTA PUBLIC LIBRARY,221 SECOND STREET SOUTH,ONEONTA,35121,2109,BLOUNT,2052747641,CE,NO,8000,R_09,0,R_09,2010,00,00,00,-86.475671,33.9445,01,009,57000,58345,32,501.0100098,1006,04,0
AL,AL0177,002,999-021,THOMASVILLE PUBLIC LIBRARY,1401 MOSLEY DRIVE,THOMASVILLE,36784,3334,CLARKE,3346365343,CE,NO,4404,R_09,0,R_09,2010,00,00,00,-87.736905,31.9319,01,025,75960,26042,41,9576,1021,07,0
AL,AL0178,002,999-022,MACON COUNTY - TUSKEGEE PUBLIC LIBRARY,302 SOUTH MAIN STREET,TUSKEGEE,36083,1806,MACON,3377275192,CE,NO,2860,R_09,0,R_09,2010,00,00,00,-85.689058,32.42189,01,087,77304,21789,32,9820,1050,03,0
AL,AL0179,002,999-023,MOUNDVILLE PUBLIC LIBRARY,410 MARKET STREET,MOUNDVILLE,35474,0336,HALE,2053712283,CE,NO,1100,R_09,0,R_09,2010,00,00,00,-87.631279,32.99839,01,065,51648,17975,42,400,1037,07,0
AL,AL0180,002,999-024,UNIONTOWN PUBLIC LIBRARY,108 WATER STREET,UNIONTOWN,36786,0637,PERRY,3346286681,CE,NO,3834,R_09,0,R_09,2010,00,00,00,-87.523784,32.41158,01,105,00000,10623,43,9831,1000,07,X
AL,AL0181,002,999-025,PRICHARD PUBLIC LIBRARY,300 LOVEJOY LOOP WEST,PRICHARD,36610,3952,MOBILE,2514527847,CE,NC,10000,R_09,0,R_09,2010,00,00,00,-88.083931,30.73224,01,097,62496,411721,21,42,1025,01,0
AL,AL0181,004,999-032,PRICHARD PUBLIC - MITCHELL BRANCH,4440 HIGHPOINT BLVD,EIGHT MILE,36613,3952,MOBILE,2514527846,BR,NC,1300,R_09,0,R_09,2010,00,06,00,-88.15987,30.7618,01,097,62496,411721,21,61.02999878,1018,01,0
AL,AL0182,003,999-026,WASHINGTON COUNTY PUBLIC - MCINTOSH BRANCH LIBRARY,803 RIVER ROAD,MCINTOSH,36553,0478,WASHINGTON,2519442047,BR,NO,240,R_09,0,R_09,2010,00,06,00,-88.016115,31.2727,01,129,00000,17069,43,9942,2044,01,X
AL,AL0182,004,999-026,WASHINGTON COUNTY PUBLIC LIBRARY,14102 ST. STEPHENS AVE.,CHATOM,36518,1057,WASHINGTON,2518472097,CE,NO,-1,U_09,0,R_09,2010,00,00,00,-88.209143,31.4529,01,129,14008,17069,43,9940,2012,01,0
AL,AL0182,006,AL0182-006,WASHINGTON COUNTY BOOKMOBILE,HIGHWAY 56,CHATOM,36518,1057,WASHINGTON,2518472097,BS,NO,-3,U_09,1,R_09,2010,00,00,00,-88.235121,31.460222,01,129,14008,17069,43,9940,2020,01,X
AL,AL0184,002,999-030,EVERGREEN - CONECUH COUNTY PUBLIC LIBRARY,119 CEMETERY AVENUE,EVERGREEN,36401,2903,CONECUH,2515782670,CE,NO,11432,R_09,0,R_09,2010,00,00,00,-86.954008,31.43397,01,035,24808,12931,43,9606,1061,02,0
AL,AL0186,002,999-032,MOBILE PUBLIC LIBRARY - BEN MAY MAIN LIBRARY,701 GOVERNMENT STREET,MOBILE,36602,1499,MOBILE,2512087073,CE,CC,49258,R_09,0,R_09,2010,00,06,00,-88.050459,30.68722,01,097,50000,411721,12,2,2046,01,0
AL,AL0186,004,999-032,MOBILE PUBLIC - PARKWAY BRANCH,1924-B DAUPHIN ISLAND PARKWAY,MOBILE,36602,1403,MOBILE,2514707766,BR,CC,8820,R_09,0,R_09,2010,00,06,07,-88.088997,30.631244,01,097,50000,411721,12,2,2020,01,4
AL,AL0186,006,999-032,MOBILE PUBLIC - MOORER/SPRING HILL BRANCH,4 MCGREGOR AVENUE SOUTH,MOBILE,36633,1587,MOBILE,2514707770,BR,CC,11892,R_09,0,R_09,2010,00,06,00,-88.144446,30.69585,01,097,50000,411721,12,35.02000046,2000,01,0
AL,AL0186,008,999-032,MOBILE PUBLIC - TOULMINVILLE BRANCH,601 STANTON ROAD,MOBILE,36602,1403,MOBILE,2514387075,BR,CC,15395,R_09,0,R_09,2010,00,06,00,-88.096739,30.70871,01,097,50000,411721,12,8,6002,01,0
AL,AL0186,010,999-032,MOBILE PUBLIC - TILLMANS CORNER BRANCH,"5451 HALLS MILL ROAD, SUITE 10",MOBILE,36602,1403,MOBILE,2516614578,BR,CC,2000,R_09,0,R_09,2010,00,06,00,-88.166417,30.59379,01,097,76320,411721,12,68.01999664,1030,01,0
AL,AL0186,011,999-032,MOBILE PUBLIC - SARALAND BRANCH LIBRARY,111 SARALAND LOOP,SARALAND,36571,2418,MOBILE,2516752879,BR,NC,7168,R_09,0,R_09,2010,00,06,00,-88.073865,30.82462,01,097,68160,411721,21,55,2018,01,0
AL,AL0186,013,AL0186-013,MOBILE PUBLIC LIBRARY - BOOKMOBILE,601 STANTON ROAD,MOBILE,36602,1403,MOBILE,2514701778,BS,CC,-3,U_09,1,R_09,2010,00,06,07,-88.096632,30.708362,01,097,50000,411721,12,8,6002,01,0
AL,AL0186,014,999-032,MOBILE PUBLIC - WEST REGIONAL LIBRARY,5555 GRELOT ROAD,MOBILE,36602,1403,MOBILE,2513408555,BR,CC,49258,R_09,0,R_09,2010,00,06,00,-88.169748,30.66387,01,097,50000,411721,12,37.06999969,1002,01,0
AL,AL0186,015,BR,MOBILE PUBLIC - THEODORE OAKS BRANCH,"5808 HIGHWAY 90 WEST, SUITE E",MOBILE,36602,1403,MOBILE,2516535012,BR,CC,3452,R_09,0,R_09,2010,00,06,15,-88.050801,30.68714,01,097,50000,411721,12,2,2020,01,4
AL,AL0186,016,BR,MOBILE PUBLIC - TRINITY GARDENS COMMUNITY BRANCH LIBRARY,2668 BERKLEY AVENUE,MOBILE,36602,1403,MOBILE,2514575954,BR,CC,1647,R_09,0,R_09,2010,00,06,00,-88.112032,30.733,01,097,50000,411721,12,39.00999832,1022,01,0
AL,AL0187,002,AL0187-002,MONTGOMERY PUBLIC - JULIETTE HAMPTON MORGAN MEMORIAL LIBRARY,245 HIGH STREET,MONTGOMERY,36104,4603,MONTGOMERY,3342404999,CE,CC,52000,R_09,0,R_09,2010,00,06,00,-86.305395,32.37188,01,101,51000,224119,12,2,1033,03,0
AL,AL0187,003,999-036,MONTGOMERY PUBLIC - COLISEUM BOULEVARD BRANCH,840 COLISEUM BOULEVARD,MONTGOMERY,36108,1208,MONTGOMERY,3342717005,BR,CC,7600,R_09,0,R_09,2010,00,06,00,-86.259536,32.39997,01,101,51000,224119,12,18,1000,02,0
AL,AL0187,005,999-036,MONTGOMERY PUBLIC - GOVERNOR'S SQUARE BRANCH,2885-B EAST SOUTH BOULEVARD,MONTGOMERY,36116,2513,MONTGOMERY,3342847929,BR,CC,12500,R_09,0,R_09,2010,00,06,00,-86.248879,32.32742,01,101,51000,224119,12,28,3005,02,0
AL,AL0187,008,999-036,MONTGOMERY PUBLIC - PIKE ROAD BRANCH,9585 VAUGHN ROAD,PIKE ROAD,36064,2292,MONTGOMERY,3342448679,BR,NC,5700,R_09,0,R_09,2010,00,06,00,-86.092276,32.346,01,101,00000,224119,41,55,3005,03,0
AL,AL0187,009,999-036,MONTGOMERY PUBLIC - PINE LEVEL BRANCH,20 KOHN DRIVE,PINE LEVEL,36065,2292,MONTGOMERY,3345847144,BR,NC,970,R_09,0,R_09,2010,00,06,00,-86.058364,32.06796,01,101,00000,224119,42,57,1048,03,X
AL,AL0187,010,999-036,MONTGOMERY PUBLIC - PINTLALA BRANCH,255 FEDERAL ROAD,HOPE HULL,36043,9781,MONTGOMERY,3342818069,BR,NC,6700,R_09,0,R_09,2010,00,06,00,-86.371187,32.17637,01,101,00000,224119,42,59.00999832,3000,03,0
AL,AL0187,011,999-036,MONTGOMERY PUBLIC - RAMER BRANCH,5444 STATE HIGHWAY 94,RAMER,36069,5008,MONTGOMERY,3345623364,BR,NC,4500,R_09,0,R_09,2010,00,06,00,-86.218831,32.05212,01,101,00000,224119,42,58,2016,03,0
AL,AL0187,012,999-036,MONTGOMERY PUBLIC - ROSA PARKS AVENUE BRANCH,1276 ROSA PARKS AVENUE,MONTGOMERY,36108,3070,MONTGOMERY,3342404979,BR,CC,5228,R_09,0,R_09,2010,00,06,00,-86.316796,32.3596,01,101,51000,224119,12,12,2009,03,4
AL,AL0187,017,999-036,MONTGOMERY PUBLIC - E. L. LOWDER REGIONAL LIBRARY,3950 BELL ROAD,MONTGOMERY,36116,2513,MONTGOMERY,3342445717,BR,CC,9500,R_09,0,R_09,2010,00,06,00,-86.196377,32.325,01,101,51000,224119,12,56.02000046,1007,03,0
AL,AL0187,022,AL0187-022,MONTGOMERY PUBLIC - RUFUS A. LEWIS REGIONAL BRANCH,3095 MOBILE HIGHWAY,MONTGOMERY,36108,4002,MONTGOMERY,3342404848,BR,CC,9500,R_09,0,R_09,2010,00,06,00,-86.338862,32.3471,01,101,51000,224119,12,24,4006,03,0
AL,AL0188,002,999-037,WHITE HALL PUBLIC LIBRARY,640 FREEDOM ROAD,WHITE HALL,36040,2830,LOWNDES,3348747323,CE,NO,20736,R_09,0,R_09,2010,00,00,00,-86.712635,32.3016,01,085,81912,12293,42,9810,1002,02,0
AL,AL0189,002,999-040,STEVENSON PUBLIC LIBRARY,102 WEST MAIN STREET,STEVENSON,35772,3564,JACKSON,2564373008,CE,NO,5500,R_09,0,R_09,2010,00,00,00,-85.836287,34.8703,01,071,73080,52838,42,9503,2072,05,0
AL,AL0190,002,516-002,KILLEN PUBLIC LIBRARY,325 J. C. MAULDIN HIGHWAY,KILLEN,35645,0542,LAUDERDALE,2567575471,CE,NC,900,R_09,0,R_09,2010,00,00,00,-87.547366,34.85742,01,077,39784,89599,41,116.0100021,3090,05,0
AL,AL0191,002,516-003,LEXINGTON PUBLIC LIBRARY,11075 HIGHWAY 101,LEXINGTON,35648,0459,LAUDERDALE,2562295579,CE,NC,13500,R_09,0,R_09,2010,00,00,00,-87.371204,34.9686,01,077,42640,89599,42,117,6045,05,0
AL,AL0192,002,999-043,AUTAUGA - PRATTVILLE PUBLIC LIBRARY,254 DOSTER STREET,PRATTVILLE,36067,3933,AUTAUGA,3343653396,CE,CC,12000,R_09,0,R_09,2010,00,00,00,-86.468856,32.45693,01,001,62328,50756,41,207,1020,02,0
AL,AL0192,003,999-043,AUTAUGAVILLE PUBLIC LIBRARY,207 N. TAYLOR STREET,AUTAUGAVILLE,36003,2662,AUTAUGA,3343659322,BR,NC,1500,R_09,0,R_09,2010,00,00,00,-86.657929,32.43252,01,001,03220,50756,42,211,2050,02,0
AL,AL0192,004,999-043,BILLINGSLEY PUBLIC LIBRARY,2021 OFFICE STREET,BILLINGSLEY,36006,2500,AUTAUGA,2057559808,BR,NC,300,R_09,0,R_09,2010,00,00,00,-86.718557,32.65882,01,001,06460,50756,43,210,2055,02,0
AL,AL0192,005,999-043,MARBURY PUBLIC LIBRARY,205 COUNTY RD. 20,MARBURY,36051,3129,AUTAUGA,2057558575,BR,NC,1200,R_09,0,R_09,2010,00,00,00,-86.479639,32.70164,01,001,00000,50756,42,209,3007,02,4
AL,AL0193,002,999-044,FAYETTE COUNTY MEMORIAL LIBRARY,326 TEMPLE AVENUE NORTH,FAYETTE,35555,2309,FAYETTE,2059326625,CE,NO,11090,R_09,0,R_09,2010,00,00,00,-87.830805,33.68862,01,057,25840,17371,32,203,1037,04,0
AL,AL0194,002,999-045,PHENIX CITY - RUSSELL COUNTY PUBLIC LIBRARY,1501 17TH AVENUE,PHENIX CITY,36867,5131,RUSSELL,3342971139,CE,NC,22000,R_09,0,R_09,2010,00,00,00,-85.016045,32.475,01,113,59472,50846,22,302,3020,03,0
AL,AL0195,005,999-046,SELMA - DALLAS COUNTY PUBLIC LIBRARY,1103 SELMA AVENUE,SELMA,36701,3670,DALLAS,3348741725,CE,CC,25000,R_09,0,R_09,2010,00,00,00,-87.020437,32.40904,01,047,69120,41925,33,9965,3028,07,0
AL,AL0196,002,999-047,WEAVER-BOLDEN BRANCH LIBRARY,2937 18TH STREET,TUSCALOOSA,35401,0183,TUSCALOOSA,2057588291,BR,CC,34480,R_09,0,R_09,2010,00,00,00,-87.573187,33.1968,01,125,77256,184035,13,118,1026,07,0
AL,AL0196,005,999-047,TUSCALOOSA PUBLIC LIBRARY,1801 JACK WARNER PARKWAY,TUSCALOOSA,35401,1027,TUSCALOOSA,2053495820,CE,CC,60000,R_09,0,R_09,2010,00,00,00,-87.561937,33.21636,01,125,77256,184035,13,114,1001,07,0
AL,AL0196,009,AL0196-009,TUSCALOOSA PUBLIC LIBRARY - BOOKMOBILE,1801 JACK WARNER PARKWAY,TUSCALOOSA,35401,1027,TUSCALOOSA,2053455820,BS,CC,-3,U_09,2,R_09,2010,00,14,00,-87.561937,33.216365,01,125,77256,184035,13,114,1001,07,0
AL,AL0197,002,999-048,WILCOX COUNTY LIBRARY,100 BROAD STREET,CAMDEN,36726,1702,WILCOX,3346824355,CE,NO,6000,R_09,0,R_09,2010,00,00,00,-87.289077,31.99046,01,131,11512,12384,43,9948,3010,07,0
AL,AL0197,003,999-048,WILCOX COUNTY - PINE APPLE BRANCH LIBRARY,124 COUNTY ROAD 59,PINE APPLE,36768,M,WILCOX,2517462698,BR,NO,800,R_09,0,R_09,2010,00,06,00,-86.992546,31.88966,01,131,59880,12384,43,9949,2067,07,0
AL,AL0197,004,999-048,WILCOX COUNTY - PINE HILL BRANCH LIBRARY,530 OAK GROVE STREET,PINE HILL,36769,6769,WILCOX,3349639249,BR,NO,2500,R_09,0,R_09,2010,00,06,00,-87.589246,31.9879,01,131,60240,12384,42,9951,4059,07,0
AL,AL0198,002,999-049,MONROE COUNTY PUBLIC LIBRARY,121 PINEVILLE ROAD,MONROEVILLE,36460,1899,MONROE,2517433818,CE,NO,10000,R_09,0,R_09,2010,00,00,00,-87.324371,31.52798,01,099,50192,22389,33,9860,1016,01,0
AL,AL0199,002,999-051,CULLMAN COUNTY PUBLIC LIBRARY,200 CLARK STREET NE,CULLMAN,35055,2997,CULLMAN,2567342720,CE,NO,9300,R_09,0,R_09,2010,00,06,00,-86.842599,34.17913,01,043,18976,81778,32,9649,3037,04,0
AL,AL0199,003,999-051,CULLMAN COUNTY PUBLIC - HANCEVILLE BRANCH,201 COMMERCE ST.,HANCEVILLE,35077,5010,CULLMAN,2563529830,BR,NO,1600,R_09,0,R_09,2010,00,06,00,-86.767471,34.05834,01,043,32968,81778,32,9654,1049,04,4
AL,AL0199,007,AL0199-007,CULLMAN PUBLIC LIBARY - GARDEN CITY BRANCH LIBRARY,CITY HALL,GARDEN CITY,35070,0172,CULLMAN,2563524552,BR,NO,-3,U_09,-3,U_09,2010,03,06,00,-86.749221,34.01166,01,043,29032,81778,42,9654,4042,04,X
AL,AL0199,008,999-051,CULLMAN COUNTY PUBLIC - TOM BEVILL BRANCH,115 BYARS ROAD,HANCEVILLE,35072,2836,CULLMAN,2052871198,BR,CC,1600,R_09,0,R_09,2010,00,06,00,-86.883171,33.9475,01,043,00000,81778,42,9655,3034,04,0
AL,AL0199,009,999-051,CULLMAN COUNTY PUBLIC - FAIRVIEW BRANCH,7525 ALABAMA HWY. 69N,CULLMAN,35058,M,CULLMAN,2567965424,BR,CC,-3,U_09,-3,U_09,2010,03,06,00,-86.767378,34.23067,01,043,00000,81778,42,9642,4017,04,X
AL,AL0199,010,AL0199-010,CULLMAN COUNTY PUBLIC - BOOKMOBILE,200 CLARK ST. NE,CULLMAN,35055,M,CULLMAN,2567342720,BS,NO,-3,U_09,1,R_09,2010,00,14,00,-86.842599,34.179134,01,043,18976,81778,32,9649,3037,04,0
AL,AL0199,011,AL0199-011,CULLMAN COUNTY PUBLIC - COLONY BRANCH LIBRARY,151 BYARS ROAD,HANCEVILLE,35072,M,CULLMAN,2562871198,BR,NO,1600,R_09,0,R_09,2010,00,06,00,-86.882025,33.94599,01,043,00000,81778,42,9655,3034,04,0
AL,AL0200,002,999-052,VALLEY - H. GRADY BRADSHAW CHAMBERS COUNTY LIBRARY,3419 20TH AVENUE,VALLEY,36854,3212,CHAMBERS,3347682161,CE,NO,25000,R_09,0,R_09,2010,00,06,00,-85.177663,32.83876,01,017,78204,34320,32,9546,2032,03,0
AL,AL0200,003,999-052,LAFAYETTE PILOT PUBLIC LIBRARY,198 1ST STREET SE,LAFAYETTE,36862,2066,CHAMBERS,3348640012,BR,NO,2500,R_09,0,R_09,2010,00,00,00,-85.400305,32.89839,01,017,40672,34320,42,9540,3058,03,0
AL,AL0203,002,999-081,HOKES BLUFF - RUFUS FLOYD PUBLIC LIBRARY,3310 ALFORDS BEND ROAD,HOKES BLUFF,35903,9804,ETOWAH,2564929846,CE,NC,5000,R_09,0,R_09,2010,00,06,00,-85.866027,33.99177,01,055,35392,103645,23,106,2048,04,0
AL,AL0204,002,512-004,RAGLAND PUBLIC LIBRARY,738 MAIN STREET,RAGLAND,35131,9603,ST. CLAIR,2054722007,CE,NC,-1,U_09,0,R_09,2010,00,00,00,-86.153776,33.74267,01,115,63216,81895,42,403,1093,06,0
AL,AL0206,002,999-063,HAYNEVILLE - LOWNDES COUNTY PUBLIC LIBRARY,215B TUSKEENA STREET,HAYNEVILLE,36040,0425,LOWNDES,3345482686,CE,NO,4000,R_09,0,R_09,2010,00,06,07,-86.581962,32.184003,01,085,33712,12293,42,9808,3008,02,0
AL,AL0208,002,504-004,IDER PUBLIC LIBRARY,11309 ALABAMA  HIGHWAY 75,IDER,35981,0202,DEKALB,2566572170,CE,NO,1350,R_09,0,R_09,2010,00,00,07,-85.676162,34.687126,01,049,00000,69380,42,9601,2000,04,X
AL,AL0209,002,517-002,EUFAULA CARNEGIE LIBRARY,217 NORTH EUFAULA AVENUE,EUFAULA,36027,1515,BARBOUR,3346872337,CE,NO,19976,R_09,0,R_09,2010,00,00,00,-85.145646,31.8951,01,005,24568,29737,33,9508,1027,02,0
AL,AL0209,003,999-053,EUFAULA - MCCOO MEMORIAL CHILDREN'S LIBRARY,217 N. EUFAULA AVE.,EUFAULA,36027,1515,BARBOUR,-3,BR,NO,1500,R_09,0,R_09,2010,00,06,00,-85.145646,31.8951,01,005,24568,29737,33,9508,1027,02,0
AL,AL0210,002,509-005,GRANT PUBLIC LIBRARY,5379 MAIN STREET,GRANT,35747,0401,MARSHALL,2567285128,CE,NO,18000,R_09,0,R_09,2010,00,00,00,-86.252925,34.52667,01,095,31096,90399,42,302.019989,1012,04,0
AL,AL0211,002,999-076,DALEVILLE PUBLIC LIBRARY,308 DONNELL BOULEVARD,DALEVILLE,36322,2118,DALE,3345039119,CE,NC,6768,R_09,0,R_09,2010,00,00,00,-85.706778,31.31651,01,045,19360,48147,41,211.0200043,3005,02,0
AL,AL0216,002,107-005,COURTLAND PUBLIC LIBRARY,215 COLLEGE STREET,COURTLAND,35618,0467,LAWRENCE,2565660611,CE,NC,2652,R_09,0,R_09,2010,00,00,00,-87.310339,34.6734,01,079,55044,34106,42,9792,4067,05,0
AL,AL0217,002,107-006,EVA PUBLIC LIBRARY,4549 HIGHWAY 55 EAST,EVA,35621,0099,MORGAN,2567968638,CE,NO,3834,R_09,0,R_09,2010,00,00,00,-86.772281,34.33376,01,103,24688,117293,42,56,4006,04,0
AL,AL0218,002,504-005,CROSSVILLE PUBLIC LIBRARY,80 GAINES STREET,CROSSVILLE,35962,0308,DEKALB,2565282628,CE,NO,3600,R_09,0,R_09,2010,00,00,00,-85.992847,34.28692,01,049,18856,69380,42,9607,3010,04,0
AL,AL0219,002,999-083,WALNUT GROVE - WESTSIDE PUBLIC LIBRARY,5151 WALNUT GROVE ROAD,ALTOONA,35990,0100,ETOWAH,2055896969,CE,NC,2500,R_09,0,R_09,2010,00,06,00,-86.318686,34.03513,01,055,01660,103645,42,111,4114,04,0
AL,AL0222,002,500-009,ORANGE BEACH PUBLIC LIBRARY,26267 CANAL ROAD,ORANGE BEACH,36561,1649,BALDWIN,2519812923,CE,NC,10500,R_09,0,R_09,2010,00,00,00,-87.57485,30.29205,01,003,57144,179878,42,114.0400009,6094,01,0
AL,AL0223,002,999-073,SATSUMA PUBLIC LIBRARY,5466 OLD HIGHWAY 43,SATSUMA,36572,0579,MOBILE,2516790977,CE,NC,5800,R_09,0,R_09,2010,00,00,00,-88.059806,30.84506,01,097,68352,411721,21,56,2014,01,0
AL,AL0225,002,107-007,FALKVILLE PUBLIC LIBRARY,7 NORTH 1ST AVENUE,FALKVILLE,35622,0407,MORGAN,2567845822,CE,NO,1500,R_09,0,R_09,2010,00,00,15,-86.902185,34.33569,01,103,00000,117293,42,55,4012,04,X
AL,AL0226,002,512-007,SPRINGVILLE PUBLIC LIBRARY,6496 U.S. HIGHWAY 11,SPRINGVILLE,35146,M,ST. CLAIR,2054672339,CE,NC,-1,U_09,0,R_09,2010,00,00,00,-86.447913,33.77647,01,115,00000,81895,42,405.0100098,2034,06,X
AL,AL0227,002,999-074,BRIDGEPORT - LENA CAGLE PUBLIC LIBRARY,401 ALABAMA AVENUE,BRIDGEPORT,35740,0875,JACKSON,2564952259,CE,NO,2600,R_09,0,R_09,2010,00,00,00,-85.717395,34.947,01,071,09328,52838,32,9502,1070,05,0
AL,AL0229,002,999-080,WEST BLOCTON PUBLIC LIBRARY,62 WALTER OWENS DRIVE,WEST BLOCTON,35184,0292,BIBB,2059383570,CE,NO,2820,R_09,0,R_09,2010,00,00,00,-87.15748,33.0818,01,007,00000,21587,42,100,4034,06,X
AL,AL0231,002,AL0231-002,CARBON HILL CITY LIBRARY,215 NW 2ND STREET,CARBON HILL,35549,0116,WALKER,2059244254,CE,NO,960,R_09,0,R_09,2010,00,00,00,-87.528916,33.88992,01,127,12016,68742,43,211,3112,04,0
AL,AL0238,001,NEW,OHATCHEE PUBLIC LIBRARY,7803 ALABAMA HIGHWAY 77,OHATCHEE,36271,0645,CALHOUN,2568924203,CE,NO,2250,R_09,0,R_09,2010,00,00,15,-86.041867,33.765,01,015,56472,114081,42,26,1044,03,0
AL,AL0239,001,SOMERVILLE,SOMERVILLE PUBLIC LIBRARY,192 BROAD STREET,SOMERVILLE,35670,0178,MORGAN,2567789779,CE,NO,2000,R_09,0,R_09,2010,00,00,15,-86.799185,34.47335,01,103,71496,117293,42,54.04999924,3045,04,0
AL,AL0240,001,AL0240-001,CHELSEA PUBLIC LIBRARY,11611 CHELSEA RD,CHELSEA,35043,M,SHELBY,2056788455,CE,NO,600,R_09,0,R_09,2010,00,00,15,-86.630698,33.34148,01,117,14104,192503,41,302.019989,1038,06,0
AL,AL0241,001,AL0241-001,DUTTON PUBLIC LIBRARY,23 MAIN STREET,DUTTON,35744,0006,JACKSON,2562284090,CE,NO,1600,R_09,0,R_09,2010,00,00,00,-85.918114,34.60393,01,071,21952,52838,42,9511,3027,05,0
AL,AL0242,001,AL0242-001,FORT DEPOSIT PUBLIC LIBRARY,24 SOUTH POLLARD STREET,FORT DEPOSIT,36032,0290,LOWNDES,3344044400,CE,NO,6424,R_09,0,R_09,2010,00,00,15,-86.506416,31.9461,01,085,00000,12293,42,9532,1008,02,X
AL,AL0243,001,AL0243-001,SUMMERDALE - MARJORIE YOUNCE SNOOK PUBLIC LIBRARY,202 WEST BROADWAY STREET,SUMMERDALE,36580,M,BALDWIN,2519892011,CE,NO,-1,U_09,0,R_09,2010,00,00,00,-87.701516,30.48717,01,003,73872,179878,42,110,1017,01,0
AL,AL8004,001,AL8004-001,MOUNT VERNON PUBLIC LIBRARY,1220 MILITARY ROAD,MOUNT VERNON,36560,5526,MOBILE,2518299497,CE,NC,1500,R_09,0,R_09,2010,00,00,00,-88.013534,31.08554,01,097,52608,411721,42,58,3009,01,0
AL,AL8007,005,AL8007-005,PRICEVILLE PUBLIC LIBRARY,103 FAYE DRIVE,DECATUR,35603,5843,MORGAN,2565840230,CE,CC,2300,R_09,0,R_09,2010,00,00,00,-86.891988,34.52611,01,103,62472,117293,41,54.04000092,1074,04,0
AL,AL8008,001,AL8008-001,SARDIS CITY PUBLIC LIBRARY,1310 CHURCH STREET,SARDIS CITY,35956,4114,ETOWAH,2565935634,CE,CC,2000,R_09,0,R_09,2010,00,00,00,-86.122733,34.1735,01,055,68280,103645,41,110,2018,04,0
AL,AL8009,001,AL8009-001,GREEN POND - WOODSTOCK LIBRARY,321 PRESBYTERIAN CHURCH ROAD,"GREEN POND, ALABAMA",35074,M,BIBB,2059380008,CE,NO,1200,R_09,0,R_09,2010,00,06,00,-87.123472,33.22606,01,007,00000,21587,42,100,1055,06,X
AR,AR0001,002,AR001-002,JOHN GOULD FLETCHERBRANCH LIBRARY,823 NORTH BUCHANAN,LITTLE ROCK,72205,3211,PULASKI,5016635457,BR,CC,13500,R_09,0,R_09,2010,00,00,00,-92.339135,34.75872,05,119,41000,381904,12,15,7009,02,0
AR,AR0001,003,AR001-003,DEE BROWN BRANCH LIBRARY,6325 BASELINE RD.,LITTLE ROCK,72209,4729,PULASKI,5015687494,BR,CC,13500,R_09,0,R_09,2010,00,00,00,-92.34974,34.66932,05,119,41000,381904,12,41.06000137,2000,02,0
AR,AR0001,004,AR001-004,ADOLPHINE FLETCHER TERRY,2015 NAPA VALLEY ROAD,LITTLE ROCK,72212,3925,PULASKI,5012280129,BR,CC,18000,R_09,0,R_09,2010,00,00,00,-92.411142,34.77175,05,119,41000,381904,12,22.04999924,1004,02,0
AR,AR0001,005,AR001-005,AMY SANDERS BRANCH LIBRARY,31 SHELBY DRIVE,SHERWOOD,72120,3197,PULASKI,5018357756,BR,NC,9000,R_09,0,R_09,2010,00,00,00,-92.206437,34.83478,05,119,63800,381904,21,37.06000137,3011,02,4
AR,AR0001,006,AR001-006,ESTHER D. NIXON LIBRARY,308 WEST MAIN ST.,JACKSONVILLE,72076,4507,PULASKI,5019825533,BR,NC,10000,R_09,0,R_09,2010,00,00,00,-92.112443,34.86708,05,119,34750,381904,21,36.08000183,1046,02,0
AR,AR0001,007,AR001-007,MAX MILAM LIBRARY,609 APLIN AVENUE,PERRYVILLE,72126,8577,PERRY,5018892554,BR,NC,5000,R_09,0,R_09,2010,00,00,00,-92.805507,35.005,05,105,54710,10312,42,9528,1031,02,0
AR,AR0001,009,AROO1-009,CENTRAL ARKANSAS LIBRARY,100 ROCK,LITTLE ROCK,72201,1624,PULASKI,5019183000,CE,CC,132000,R_09,0,R_09,2010,00,00,00,-92.266834,34.74707,05,119,41000,381904,12,1,1024,02,0
AR,AR0001,010,AR0001-010,AEROSPACE EDUCATION CENTER LIBRARY,3301 EAST ROOSEVELT,LITTLE ROCK,72206,6729,PULASKI,5013999401,BR,NC,8200,R_09,0,R_09,2010,00,00,00,-92.23519,34.72147,05,119,41000,381904,12,2,1047,02,0
AR,AR0001,011,AR0001-011,MAUMELLE PUBLIC LIBRARY,10 LAKEPOINT DRIVE,MAUMELLE,72113,6230,PULASKI,5018512551,BR,NC,8500,R_09,0,R_09,2010,00,00,00,-92.405769,34.86462,05,119,44600,381904,31,43.04000092,5001,02,0
AR,AR0001,012,AR0001-012,SUE COWAN WILLIAMS LIBRARY,1800 CHESTER AVE.,LITTLE ROCK,72206,1010,PULASKI,5013764282,BR,CC,8500,R_09,0,R_09,2010,00,00,00,-92.284381,34.73281,05,119,41000,381904,12,7,2003,02,0
AR,AR0001,015,AR0001-014,SIDNEY SANDERS MCMATH,2100 JOHN BARROW RD.,LITTLE ROCK,72204,2042,PULASKI,5012250066,BR,CC,10500,R_09,0,R_09,2010,00,00,00,-92.372549,34.73441,05,119,41000,381904,12,24.04000092,4000,02,0
AR,AR0001,016,AR0001-016,ROOSEVELT THOMPSON BRANCH LIBRARY,38 RAHLING CIRCLE,LITTLE ROCK,72223,9187,PULASKI,5018213060,BR,CC,13500,R_09,0,R_09,2010,00,00,00,-92.45451,34.7687,05,119,41000,381904,12,42.09999847,2011,02,0
AR,AR0002,009,AR002-009,GREENLAND PUBLIC LIBRARY,8 EAST ROSS/CITY COMPLEX,GREENLAND,72737,0067,WASHINGTON,4795825992,BR,NC,406,R_09,0,R_09,2010,00,00,00,-94.174079,35.9939,05,143,28660,200181,22,110.0299988,3000,03,X
AR,AR0002,010,AR002-010,LINCOLN PUBLIC LIBRARY,107 WEST BEAN/P.O.BOX 555,LINCOLN,72744,0555,WASHINGTON,4798243294,BR,NC,3000,R_09,0,R_09,2010,00,00,00,-94.423476,35.9498,05,143,39970,200181,42,105.0400009,5014,03,0
AR,AR0002,011,AR002-011,PRAIRIE GROVE PUBLIC LIBRARY,123 SOUTH NEAL STREET,PRAIRIE GROVE,72753,0010,WASHINGTON,4798463782,BR,NC,3985,R_09,0,R_09,2010,00,00,00,-94.315416,35.97514,05,143,57170,200181,31,110.0100021,4019,03,0
AR,AR0002,012,AR002-012,WINSLOW PUBLIC LIBRARY,351 SOUTH HIGHWAY 71,WINSLOW,72959,2950,WASHINGTON,4796345405,BR,NC,2140,R_09,0,R_09,2010,00,00,00,-94.127361,35.79723,05,143,76190,200181,42,110.0400009,2053,03,0
AR,AR0002,013,AR002-013,WEST FORK PUBLIC LIBRARY,198 MAIN,WEST FORK,72774,0304,WASHINGTON,4798392626,BR,NC,2000,R_09,0,R_09,2010,00,00,00,-94.185595,35.92694,05,143,74360,200181,41,110.0299988,2035,03,0
AR,AR0002,014,AR002-014,SPRINGDALE PUBLIC LIBRARY,405 SOUTH PLEASANT STREET,SPRINGDALE,72764,4224,WASHINGTON,4797508180,BR,NC,43800,R_09,0,R_09,2010,00,00,00,-94.143025,36.18178,05,143,66080,200181,13,104.0199966,1004,03,0
AR,AR0002,015,AR002-015,ELKINS PUBLIC LIBRARY,162 DOOLIN DRIVE,ELKINS,72727,3306,WASHINGTON,4796432904,BR,NC,1200,R_09,0,R_09,2010,00,00,00,-94.006159,36.00199,05,143,21190,200181,41,101.0500031,2065,03,0
AR,AR0002,017,AR0002-017,FARMINGTON PUBLIC LIBRARY,241 RHEAS MILL ROAD,FARMINGTON,72730,2701,WASHINGTON,4792672674,BR,NC,3189,R_09,0,R_09,2010,00,00,00,-94.251338,36.04163,05,143,23170,200181,22,105.0599976,3016,03,0
AR,AR0003,013,AR003-013,MARION COUNTY LIBRARY,308 OLD MAIN,YELLVILLE,72687,0510,MARION,8704496015,CE,NO,3600,R_09,0,R_09,2010,00,00,00,-92.686617,36.22533,05,089,77330,16594,43,9602,2087,03,0
AR,AR0004,004,AR004-004,FULTON PUBLIC LIBRARY,263 WEST COLUMBUS,FULTON,71838,0263,HEMPSTEAD,8708962740,BR,NO,300,R_09,0,R_09,2010,00,00,00,-93.815615,33.61501,05,057,25360,23027,42,9802,2075,04,0
AR,AR0004,005,AR004-005,HOWARD COUNTY LIBRARY,"426 NORTH MAIN,SUITE 500",NASHVILLE,71852,2009,HOWARD,8708452566,BR,NO,5950,R_09,0,R_09,2010,00,00,00,-93.847027,33.94731,05,061,48560,14291,32,9503,1066,04,0
AR,AR0004,007,AR004-007,MINERAL SPRINGS PUBLIC LIBRARY,310 EAST RUNNELS,MINERAL SPRINGS,71851,0309,HOWARD,8702877162,BR,NO,400,R_09,0,R_09,2010,00,00,00,-93.910162,33.87511,05,061,46040,14291,42,9502,3030,04,0
AR,AR0004,008,AR004-008,DIERKS PUBLIC LIBRARY,202 WEST THIRD STREET,DIERKS,71833,0010,HOWARD,8702863228,BR,NO,-1,U_09,0,R_09,2010,00,00,00,-94.018248,34.1193,05,061,18970,14291,43,9501,3066,04,0
AR,AR0004,010,AR004-010,TOLLETTE BRANCH LIBRARY,205 TOWN HALL DR.,TOLLETTE,71851,0418,HOWARD,8702877166,BR,NO,500,R_09,0,R_09,2010,00,00,00,-93.899788,33.81525,05,061,69500,14291,42,9502,4085,04,0
AR,AR0004,011,AR004-011,ASHDOWN COMMUNITY LIBRARY,160 EAST COMMERCE STREET,ASHDOWN,71822,2820,LITTLE RIVER,8708983233,BR,NO,2944,R_09,0,R_09,2010,00,00,00,-94.129731,33.67428,05,081,02380,12952,32,301.019989,3018,04,0
AR,AR0004,012,AR004-012,FOREMAN PUBLIC LIBRARY,204 N. SCHUMAN STREET,FOREMAN,71836,0007,LITTLE RIVER,8705427409,BR,NO,2291,R_09,0,R_09,2010,00,00,00,-94.396999,33.72195,05,081,24250,12952,42,302,1058,04,0
AR,AR0004,014,AR004-014,NEVADA COUNTY LIBRARY,121 WEST MAIN,PRESCOTT,71857,0613,NEVADA,8708875846,BR,NO,8500,R_09,0,R_09,2010,00,00,00,-93.381219,33.80261,05,099,57260,9164,33,9902,2064,04,0
AR,AR0004,015,AR004-015,PIKE COUNTY LIBRARY,210 2ND AVENUE,MURFREESBORO,71958,0153,PIKE,8702852575,BR,NO,854,R_09,0,R_09,2010,00,00,00,-93.688693,34.0613,05,109,48290,10627,43,9535,5030,04,0
AR,AR0004,016,AR004-016,GLENWOOD BRANCH LIBRARY,210 2ND STREET SUITE L,GLENWOOD,71943,4643,PIKE,8703564643,BR,NO,896,R_09,0,R_09,2010,00,00,00,-93.511379,34.3253,05,109,00000,10627,42,9533,2064,04,X
AR,AR0004,017,AR004-017,DELIGHT BRANCH LIBRARY,420 ANTIOCH STREET,DELIGHT,71940,9999,PIKE,8703792422,BR,NO,-1,U_09,0,R_09,2010,00,00,00,-93.506858,34.03162,05,109,18100,10627,43,9535,2080,04,2
AR,AR0004,018,AR004-018,POLK COUNTY LIBRARY,410 EIGHTH STREET,MENA,71953,3240,POLK,4793942314,BR,NO,5914,R_09,0,R_09,2010,00,00,00,-94.241158,34.58488,05,113,45170,20259,33,9502,5020,04,0
AR,AR0004,019,AR004-019,DEQUEEN BRANCH LIBRARY,200 WEST STILLWELL,DEQUEEN,71832,3116,SEVIER,8705844364,BR,NO,5500,R_09,0,R_09,2010,00,00,00,-94.339201,34.03672,05,133,18490,16904,33,9803,2069,04,0
AR,AR0004,020,AR004-020,GILLHAM BRANCH LIBRARY,102 NORTH 2ND STREET/P.O.BOX 173,GILLHAM,71842,0173,SEVIER,8703865665,BR,NO,600,R_09,0,R_09,2010,00,00,00,-94.313951,34.1702,05,133,27010,16904,42,9801,2037,04,0
AR,AR0004,021,AR004-021,HORATIO BRANCH LIBRARY,108 MAIN STREET,HORATIO,71842,0346,SEVIER,8708326882,BR,NO,1325,R_09,0,R_09,2010,00,00,00,-94.358244,33.9385,05,133,33310,16904,42,9802,2085,04,0
AR,AR0004,022,AR004-022,LOCKESBURG BRANCH LIBRARY,112 EAST MAIN STREET,LOCKESBURG,71846,9649,SEVIER,8702892233,BR,NO,1200,R_09,0,R_09,2010,00,00,00,-94.167584,33.96727,05,133,41090,16904,42,9804,1039,04,0
AR,AR0004,023,AR0004-023,HEMPSTEAD COUNTY LIBRARY,500 SOUTH ELM STREET,HOPE,71801,6926,HEMPSTEAD,8707774564,CE,NO,7150,R_09,0,R_09,2010,00,00,00,-93.592132,33.66,05,057,33190,23027,32,9803,2008,04,0
AR,AR0004,024,AR0004-024,WINTHROP PUBLIC LIBRARY,720 HIGH STREET,WINTHROP,71866,0193,LITTLE RIVER,8703817580,BR,NO,1020,R_09,0,R_09,2010,00,00,00,-94.351388,33.83173,05,081,76250,12952,43,303,1081,04,0
AR,AR0004,025,AR0004-025,BEN LOMOND BRANCH LIBRARY,448 WILLSON CREEK ROAD,BEN LOMOND,71823,0142,SEVIER,8702874374,BR,NO,500,R_09,0,R_09,2010,00,00,00,-94.115129,33.83647,05,133,05260,16904,42,9804,2158,04,X
AR,AR0005,005,AR005-005,GRANT COUNTY LIBRARY,210 NORTH OAK STREET,SHERIDAN,72150,2495,GRANT,8709424436,BR,NO,3953,R_09,0,R_09,2010,00,00,00,-92.401435,34.308,05,053,63710,17760,32,9704,3050,04,0
AR,AR0005,006,AR005-006,DALLAS COUNTY LIBRARY,501 EAST FOURTH ST,FORDYCE,71742,0584,DALLAS,8703523592,BR,NO,4800,R_09,0,R_09,2010,00,00,00,-92.407363,33.81579,05,039,24220,7991,32,9703,4042,04,0
AR,AR0005,009,AR0005-011,MID ARKANSAS REGIONAL LIBRARY,202 EAST THIRD STREET,MALVERN,72104,3910,HOT SPRING,5013325441,BS,NO,-3,U_09,1,R_09,2010,00,00,00,-92.811958,34.363855,05,059,43610,31787,32,204,1026,04,0
AR,AR0005,010,AR0005-010,ROY AND CHRISTINE STURGIS LIBRARY OF CLEVELAND COUNTY,203 WEST MAGNOLIA,RISON,71665,0388,CLEVELAND,8703257270,BR,NO,4951,R_09,0,R_09,2010,00,00,00,-92.194711,33.95513,05,025,59480,8436,42,9701,3032,04,0
AR,AR0005,011,AR005-009,MID ARKANSAS REGIONAL LIBRARY,202 EAST THIRD STREET,MALVERN,72104,3910,HOT SPRING,5013325441,CE,NO,11125,R_09,0,R_09,2010,00,00,00,-92.811958,34.36385,05,059,43610,31787,32,204,1026,04,0
AR,AR0005,013,AR005-007,FOHRELL PUBLIC LIBRARY,186 DALLAS 208,SPARKMAN,71763,8720,DALLAS,8706782561,BR,NO,800,R_09,0,R_09,2010,00,00,00,-92.878629,33.96611,05,039,00000,7991,43,9702,2041,04,2
AR,AR0006,004,AR006-004,GARLAND COUNTY LIBRARY,1427 MALVERN AVENUE,HOT SPRINGS,71901,6316,GARLAND,5016234161,CE,NO,34500,R_09,0,R_09,2010,00,00,00,-93.039872,34.49769,05,051,33400,98479,13,115,2040,04,0
AR,AR0006,007,AR0006-007,GARLAND COUNTY LIBRARY BOOKMOBILE,1427 MALVERN AVE.,HOT SPRINGS,71901,6316,GARLAND,5012766509,BS,NC,-3,U_09,1,R_09,2010,00,00,00,-93.039872,34.497695,05,051,33400,98479,13,115,2040,04,0
AR,AR0007,004,AR007-004,MAMMOTH SPRING PUBLIC LIBRARY,101 MAIN STREET,MAMMOTH SPRING,72554,0256,FULTON,8706253205,BR,NO,1065,R_09,0,R_09,2010,00,00,00,-91.5381,36.49561,05,049,43670,11585,41,9501,2012,01,0
AR,AR0007,005,AR007-005,SALEM PUBLIC LIBRARY,207 PICKREN STREET,SALEM,72576,0277,FULTON,8708942014,BR,NO,2016,R_09,0,R_09,2010,00,00,00,-91.823332,36.37566,05,049,62150,11585,43,9502,2037,01,0
AR,AR0007,006,AR004-006,VIOLA PUBLIC LIBRARY,HWY 223 SOUTH,VIOLA,72583,9533,FULTON,8704583070,BR,NO,320,R_09,0,R_09,2010,00,00,00,-91.926218,36.38035,05,049,00000,11585,43,9502,6074,01,4
AR,AR0007,007,AR007-007,GREERS FERRY PUBLIC LIBRARY,"8249 EDGEMONT ROAD, SUITE 9",GREERS FERRY,72067,1283,CLEBURNE,5018258677,BR,NO,1250,R_09,0,R_09,2010,00,00,00,-92.176885,35.56801,05,023,28810,25600,42,9802,1041,01,0
AR,AR0007,008,AR007-008,CLEBURNE COUNTY LIBRARY,1010 WEST SEARCY STREET,HEBER SPRINGS,72543,3766,CLEBURNE,5013622477,BR,NO,5000,R_09,0,R_09,2010,00,00,00,-92.041517,35.49119,05,023,31090,25600,33,9804,2022,01,0
AR,AR0007,009,AR007-009,CALICO ROCK BRANCH LIBRAR,1214 SECOND STREET,CALICO ROCK,72519,0327,IZARD,8702973785,BR,NO,4000,R_09,0,R_09,2010,00,00,00,-92.214218,36.22478,05,065,00000,13038,42,9505,4034,01,X
AR,AR0007,010,AR007-010,HORSESHOE BEND BRANCH LIBRARY,9 CLUB ROAD,HORSESHOE BEND,72512,3520,IZARD,8706704318,BR,NO,4200,R_09,0,R_09,2010,00,00,00,-91.75976,36.23004,05,065,33370,13038,43,9601,4158,01,0
AR,AR0007,011,AR007-011,MELBOURNE PUBLIC LIBRARY,915 EAST MAIN STREET,MELBOURNE,72556,0343,IZARD,8703687467,BR,NO,3150,R_09,0,R_09,2010,00,00,00,-91.892396,36.05855,05,065,45080,13038,43,9602,2082,01,0
AR,AR0007,012,AR007-012,EVENING SHADE BRANCH LIBRARY,222 MAIN STREET,EVENING  SHADE,72532,0235,SHARP,8702663873,BR,NO,950,R_09,0,R_09,2010,00,00,00,-91.619029,36.07176,05,135,22360,17664,43,9704,1035,01,0
AR,AR0007,013,AR007-013,SHARP COUNTY LIBRARY,201 CHURCH STREEET,HARDY,72542,9803,SHARP,8708563934,BR,NO,1749,R_09,0,R_09,2010,00,00,00,-91.47322,36.31442,05,135,29920,17664,41,9702,1106,01,4
AR,AR0007,014,AR007-014,WILLIFORD PUBLIC LIBRARY,222 MAIN STREET,WILLIFORD,72482,0094,SHARP,8709664227,BR,NO,335,R_09,0,R_09,2010,00,00,00,-91.324292,36.32337,05,135,00000,17664,43,9701,2073,01,X
AR,AR0007,015,AR007-015,STONE COUNTY LIBRARY,326 WEST WASHINGTON,MOUNTAIN VIEW,72560,6393,STONE,8702693100,BR,NO,5300,R_09,0,R_09,2010,00,00,00,-92.120597,35.86951,05,137,47540,11991,43,9502,2075,01,0
AR,AR0007,016,AR0007-016,INDEPENDENCE COUNTY LIBRARY,368 EAST MAIN STREET,BATESVILLE,72501,5605,INDEPENDENCE,8707938814,BR,NO,5000,R_09,0,R_09,2010,00,00,00,-91.651539,35.77153,05,063,04030,34634,33,9902,1032,01,0
AR,AR0007,017,AR0007-017,CAVE CITY BRANCH LIBRARY,120 SPRING STREET,CAVE CITY,72521,0240,SHARP,8702836947,BR,NO,620,R_09,0,R_09,2010,00,00,00,-91.548147,35.9394,05,135,12280,17664,42,9704,3048,01,0
AR,AR0008,002,AR008-002,PINE BLUFF JEFFERSON COUNTY LIBRARY SYSTEM,200 EAST 8TH AVENUE,PINE BLUFF,71601,5006,JEFFERSON,8705344802,CE,NC,37000,R_09,0,R_09,2010,00,00,00,-92.001854,34.22157,05,069,55310,78705,13,10,4075,04,0
AR,AR0008,003,AR008-003,WHITE HALL PUBLIC LIBRARY,300 ANDERSON STREET,WHITE HALL,71602,2711,JEFFERSON,8702475064,BR,NC,8500,R_09,0,R_09,2010,00,00,00,-92.094275,34.27642,05,069,75170,78705,41,3.019999981,2005,04,0
AR,AR0008,004,AR008-004,WATSON CHAPEL PUBLIC LIBRARY,4120 CAMDEN ROAD,PINE BLUFF,71603,9096,JEFFERSON,8708793406,BR,NC,4200,R_09,0,R_09,2010,00,00,00,-92.054969,34.19679,05,069,55310,78705,13,15.01000023,1009,04,0
AR,AR0008,006,AR0008-006,REDFIELD PUBLIC LIBRARY,310 BRODIE STREET,REDFIELD,72132,0070,JEFFERSON,5013975070,BR,NC,3500,R_09,0,R_09,2010,00,00,00,-92.155138,34.45562,05,069,00000,78705,42,2,1022,04,X
AR,AR0008,007,AR0008-007,ALTHEIMER PUBLIC LIBRARY,222 SOUTH EDLINE,ALTHEIMER,72004,8589,JEFFERSON,8707668499,BR,NC,3500,R_09,0,R_09,2010,00,00,00,-91.845807,34.31896,05,069,01150,78705,42,23,3180,04,0
AR,AR0009,002,AR009-002,JONESBORO / CRAGIHEAD COUNTY PUBLIC LIBRARY,315 WESTOAK AVENUE,JONESBORO,72401,3594,CRAIGHEAD,8709355133,CE,CC,39000,R_09,0,R_09,2010,00,00,00,-90.707839,35.83382,05,031,35710,95457,13,1,3006,01,4
AR,AR0009,003,AR009-003,CARAWAY PUBLIC LIBRARY,102 E. STATE STREET,CARAWAY,72419,0249,CRAIGHEAD,8704823394,BR,NC,758,R_09,0,R_09,2010,00,00,00,-90.32248,35.75812,05,031,11410,95457,42,10,4046,01,0
